timestamp,pdop,hdop,vdop,lati,longi,gps_speed,gps_mode,gps_fix_type,gps_fix_quality,gps_sats_tracked,gps_alt,gps_height,accel_x_g,accel_y_g,accel_z_g,gyro_x_dps,gyro_y_dps,gyro_z_dps,pressure_pa,tc_temp_C,cjc_temp_C,oc_sc_flags,batt_voltage_V,batt_current_mA,baro_calculated_altitude_m,pos_x,pos_y,pos_z,vel_x,vel_y,vel_z,roll_deg,pitch_deg,yaw_deg
0.0,0,0,0,-43.819213,172.65567,0.0,A,3,1,13,12.6,10.0,-0.076,0.997,-0.094,-1.3,-3.6,0.7,101443,27.0,28.6,0,4.15,44.7,-0.258101772141013,0.0,0.0,0.0,0.0,0.0,0.0,0.0,0.0,0.0
0.05000000000001137,0,0,0,-43.819213,172.65567,0.0,A,3,1,13,12.6,10.0,-0.068,0.996,-0.077,-1.2,-1.1,0.7,101443,27.0,28.9,0,4.1,75.9,-0.258101772141013,0.0,0.0,0.0,0.0,0.0,0.0,0.0,0.0,0.0
0.09999999999999432,0,0,0,-43.819213,172.65567,0.0,A,3,1,13,12.6,10.0,-0.065,0.994,-0.084,-0.9,3.1,0.6,101443,27.7,28.9,0,4.12,75.4,-0.258101772141013,0.0,0.0,0.0,0.0,0.0,0.0,0.0,0.0,0.0
0.16399999999998727,0,0,0,-43.819213,172.65567,0.0,A,3,1,13,12.6,10.0,-0.06,0.994,-0.092,0.0,1.8,0.9,101443,26.7,28.2,0,4.16,39.6,-0.258101772141013,0.0,0.0,0.0,0.0,0.0,0.0,0.0,0.0,0.0
0.20499999999998408,0,0,0,-43.819213,172.65567,0.0,A,3,1,13,12.6,10.0,-0.059,0.995,-0.105,-0.2,-1.6,0.5,101443,26.7,29.1,0,4.15,41.9,-0.258101772141013,0.0,0.0,0.0,0.0,0.0,0.0,0.0,0.0,0.0
0.2529999999999859,0,0,0,-43.819213,172.65567,0.0,A,3,1,13,12.6,10.0,-0.059,0.995,-0.098,-0.7,0.1,0.2,101440,27.7,29.1,0,4.15,43.3,0.0,0.0,0.0,0.0,0.0,0.0,0.0,0.0,0.0,0.0
0.30299999999999727,0,0,0,-43.819213,172.65567,0.0,A,3,1,13,12.6,10.0,-0.048,0.995,-0.109,-0.7,-1.3,0.1,101440,28.0,29.1,0,4.14,36.8,0.0,0.0,0.0,0.0,0.0,0.0,0.0,0.0,0.0,0.0
0.35300000000000864,0,0,0,-43.819213,172.65567,0.0,A,3,1,13,12.6,10.0,-0.085,0.996,-0.083,-0.5,-2.3,0.2,101440,28.0,28.8,0,4.14,37.7,0.0,0.0,0.0,0.0,0.0,0.0,0.0,0.0,0.0,0.0
0.4029999999999916,0,0,0,-43.819213,172.65567,0.0,A,3,1,13,12.6,10.0,-0.073,0.995,-0.08,-0.6,0.2,0.4,101440,27.5,28.8,0,4.14,41.0,0.0,8.39516560769297e-06,0.0005901848862742554,3.4168696356726705e-05,0.0003358066243078333,0.023607395450978265,0.0013667478542695344,-121.5779335045165,-83.48648220818943,0.03766047232024886
0.45300000000000296,0,0,0,-43.819213,172.65567,0.0,A,3,1,13,12.6,10.0,-0.063,0.993,-0.096,-0.3,3.8,0.5,101440,27.7,28.9,0,4.11,72.6,0.0,6.127959028514195e-05,0.0016248734840443348,9.058011636428399e-05,0.001779570362789645,0.017780148459815494,0.0008897089460322442,-121.54114238567666,-83.48143750391499,0.02312258390572658
0.5029999999999859,0,0,0,-43.819213,172.65567,0.0,A,3,1,13,12.6,10.0,-0.063,0.994,-0.108,-0.4,-0.7,0.5,101440,27.7,29.0,0,4.16,38.7,0.0,7.430224011881801e-05,0.002505574759271452,0.00013002959722988112,-0.001258664369442425,0.017447902549281205,0.000688270288592179,-121.21892226655984,-83.46618523113374,-0.09753223016609562
0.5529999999999973,0,0,0,-43.819213,172.65567,0.0,A,3,1,13,12.6,10.0,-0.048,0.994,-0.109,-1.3,-4.0,0.3,101440,27.7,29.0,0,4.15,41.9,0.0,-8.111778158161096e-05,0.0034847887655974513,0.00016783365802163365,-0.00495813649857332,0.02172065770374985,0.000823892143077578,-121.1449893896722,-83.45516327489791,-0.1947504724762564
0.6030000000000086,0,0,0,-43.819213,172.65567,0.0,A,3,1,13,12.6,10.0,-0.055,0.997,-0.095,-1.4,-2.7,0.1,101440,27.2,28.9,0,4.12,69.4,0.0,-0.0003276147501513944,0.004681621302512679,0.00022003746725913527,-0.004901742244215775,0.026152643772848382,0.0012642602264220117,-121.5146016722909,-83.47740879661667,-0.011601517230183387
0.6529999999999916,0,0,0,-43.819213,172.65567,0.0,A,3,1,13,12.6,10.0,-0.079,0.995,-0.076,-0.9,-3.0,0.5,101440,27.2,28.7,0,4.15,38.7,0.0,-0.0005026854375812646,0.005841719075067257,0.0002921136892402744,-0.002101085252981421,0.02025126712935054,0.0016187886528245357,-121.91868661890028,-83.4985092504804,0.2716581349098506
0.703000000000003,0,0,0,-43.819213,172.65567,0.0,A,3,1,13,12.6,10.0,-0.073,0.995,-0.069,-0.4,2.8,0.6,101440,27.5,28.7,0,4.16,40.1,0.0,-0.00046554602740698977,0.00653569956830162,0.0003610848921394943,0.0035866616599520766,0.007507952600017664,0.0011400594631436336,-122.07407349868096,-83.50884782086236,0.2895067614242247
0.7529999999999859,0,0,0,-43.819213,172.65567,0.0,A,3,1,13,12.6,10.0,-0.051,0.994,-0.09,-0.2,7.3,0.7,101443,27.7,29.1,0,4.14,42.9,-0.258101772141013,-0.00012805698377370636,0.006782037480847939,0.00039801176823145993,0.009912900085383864,0.0023455639018384617,0.0003370155805354956,-121.78595230629546,-83.5006157681769,0.15285557828569335
0.8029999999999973,0,0,0,-43.819213,172.65567,0.0,A,3,1,13,12.6,10.0,-0.069,0.991,-0.119,-0.5,0.8,0.6,101443,27.7,28.7,0,4.11,39.6,-0.258101772141013,0.00027919114887414227,0.006940457332967103,0.00039841000243963733,0.006377025220526379,0.00399123018292666,-0.00032108621220840227,-121.19044680880394,-83.48634890244011,-0.06671703626380807
0.8530000000000086,0,0,0,-43.819213,172.65567,0.0,A,3,1,13,12.6,10.0,-0.076,0.992,-0.092,-0.6,-2.3,0.7,101443,27.2,28.7,0,4.14,47.1,-0.258101772141013,0.0004207728590264691,0.0070477112896428626,0.00036389299434999394,-0.0007137568144345947,0.0002989280841027347,-0.0010595941113770203,-121.02642126709202,-83.48217700215604,-0.1791214850642583
0.9029999999999916,0,0,0,-43.819213,172.65567,0.0,A,3,1,13,12.6,10.0,-0.059,0.997,-0.088,-0.5,1.9,0.5,101443,27.5,28.7,0,4.14,43.3,-0.258101772141013,0.0004050849633781636,0.0069218225044687855,0.0003069360871563885,8.624098850216219e-05,-0.005334479491067545,-0.0012186821763679747,-121.00250810876658,-83.48484564964546,-0.30651053037799586
0.953000000000003,0,0,0,-43.819213,172.65567,0.0,A,3,1,13,12.6,10.0,-0.043,0.996,-0.097,-0.6,0.7,0.4,101443,27.5,28.9,0,4.11,77.7,-0.258101772141013,0.0005106834185435395,0.006700637746055368,0.00025755854587765673,0.004137697218111915,-0.0035129108454671288,-0.0007564194747808456,-120.82120004349775,-83.47806141884186,-0.38095270849225543
1.002999999999986,0,0,0,-43.819213,172.65567,0.0,A,3,1,13,12.6,10.0,-0.055,0.995,-0.104,-0.7,-3.2,0.3,101438,27.7,28.6,0,4.15,43.3,0.1720712818972014,0.0007480289567344592,0.006639427242287362,0.00022724270714761055,0.0053561243095281135,0.0010644906947460293,-0.0004562140744214158,-120.7600209949017,-83.47299502906891,-0.3948747812001457
1.0529999999999973,0,0,0,-43.819213,172.65567,0.0,A,3,1,13,12.6,10.0,-0.067,0.994,-0.083,-0.9,-0.9,0.0,101438,27.2,28.6,0,4.14,48.9,0.1720712818972014,0.001042852785239017,0.006638339907437243,0.00019996558155232954,0.006436828830651513,-0.0011079840887507878,-0.0006348709493895759,-120.95371389863963,-83.46965825311582,-0.3485342194589939
1.1030000000000086,0,0,0,-43.819213,172.65567,0.0,A,3,1,13,12.6,10.0,-0.067,0.996,-0.089,-0.7,0.2,0.2,101438,27.2,28.6,0,4.11,71.2,0.1720712818972014,0.0014332002482716662,0.0064232887533529825,0.00016519936730428393,0.009177069690650906,-0.0074940620746176585,-0.0007557776205319324,-121.1895673467565,-83.46712533018632,-0.14400609116815846
1.1670000000000016,0,0,0,-43.819213,172.65567,0.0,A,3,1,13,12.6,10.0,-0.076,0.996,-0.09,-0.3,1.8,0.6,101438,27.2,28.2,0,4.16,43.3,0.1720712818972014,0.0020305374602411588,0.005647636566916966,0.0001440937781815925,0.00948971818339779,-0.016745068751510522,9.622796044775198e-05,-121.26733958705468,-83.45949251284488,-0.036933445630614556
1.2079999999999984,0,0,0,-43.819213,172.65567,0.0,A,3,1,13,12.6,10.0,-0.061,0.994,-0.104,-0.4,1.0,0.7,101438,26.7,28.2,0,4.14,40.5,0.1720712818972014,0.0023843843010186347,0.004891710017567117,0.00015560932457545605,0.0077711033179438446,-0.020129397070436223,0.00046550600998466096,-121.05525562881522,-83.44906434745397,-0.16593367054835498
1.2560000000000002,0,0,0,-43.819213,172.65567,0.0,A,3,1,13,12.6,10.0,-0.056,0.993,-0.106,-0.7,1.8,0.5,101439,26.7,28.9,0,4.15,42.4,0.0860352975608124,0.0026902567890878947,0.003968916631461112,0.00017365596147349318,0.004973583684941508,-0.018320327350645867,0.00028643719410019106,-120.83160257446633,-83.44337534912609,-0.33081091128154794
1.3060000000000116,0,0,0,-43.819213,172.65567,0.0,A,3,1,13,12.6,10.0,-0.052,0.994,-0.111,-1.0,-3.2,0.3,101439,27.5,28.6,0,4.11,68.4,0.0860352975608124,0.0028582284637582236,0.0031649580948982384,0.0001843179719258536,0.0017452833018701324,-0.013838014111861752,0.0001400432239941287,-120.70037988617072,-83.44516226280967,-0.3598765081765524
1.3559999999999945,0,0,0,-43.819213,172.65567,0.0,A,3,1,13,12.6,10.0,-0.063,0.997,-0.081,-0.9,-2.8,0.2,101439,27.5,28.6,0,4.15,40.1,0.0860352975608124,0.002974520519437224,0.002470626123256687,0.00019953845822801128,0.0029063989252914816,-0.013935264753809778,0.000468776228092386,-120.96088682134616,-83.45470819121559,-0.24628094327229527
1.406000000000006,0,0,0,-43.819213,172.65567,0.0,A,3,1,13,12.6,10.0,-0.068,0.996,-0.065,-0.8,-1.8,0.1,101439,27.5,29.0,0,4.14,35.4,0.0860352975608124,0.0033379355993443318,0.0015475810075163726,0.00022160242744065958,0.011630204270989517,-0.022986539875794403,0.00041378254041334544,-121.21669308503917,-83.4573319677795,-0.11728710009613023
1.4559999999999889,0,0,0,-43.819213,172.65567,0.0,A,3,1,13,12.6,10.0,-0.066,0.993,-0.086,0.0,2.4,0.6,101439,27.7,28.9,0,4.14,42.9,0.0860352975608124,0.004099176181409637,0.0001777979747540721,0.00022070173915522226,0.01881941901163308,-0.0318047814347163,-0.0004498100718308504,-121.43714565355471,-83.45302394292429,0.02644934141436395
1.5060000000000002,0,0,0,-43.819213,172.65567,0.0,A,3,1,13,12.6,10.0,-0.065,0.991,-0.116,-0.4,4.6,0.4,101441,27.5,28.9,0,4.14,42.4,-0.0860346107954208,0.004963785589777767,-0.0014564064234742972,0.00017561700949534785,0.015764957323084226,-0.033563394494403605,-0.0013535791145637165,-121.08096628433368,-83.42751480037226,-0.19885788917308048
1.5560000000000116,0,0,0,-43.819213,172.65567,0.0,A,3,1,13,12.6,10.0,-0.061,0.995,-0.126,-0.6,-1.7,0.7,101441,27.5,28.6,0,4.14,42.4,-0.0860346107954208,0.005488739225517364,-0.0030336563285006174,0.00011975677171255301,0.005233188106494891,-0.02952660170663487,-0.0008808303967475685,-120.78023163233286,-83.41387439380729,-0.25763247271612966
1.6059999999999945,0,0,0,-43.819213,172.65567,0.0,A,3,1,13,12.6,10.0,-0.073,0.995,-0.095,-1.5,-4.0,0.4,101441,27.2,28.9,0,4.15,37.7,-0.0860346107954208,0.005575301847484547,-0.00452222790768823,0.00010211447829118338,-0.0017706832278063644,-0.030016261460889964,0.00017513865989254244,-120.72753954440192,-83.41647726289297,-0.3838097868055139
1.656000000000006,0,0,0,-43.819213,172.65567,0.0,A,3,1,13,12.6,10.0,-0.084,0.997,-0.08,-1.3,-4.0,0.7,101441,27.7,28.9,0,4.11,70.8,-0.0860346107954208,0.005476131902300999,-0.00629755647596849,0.00013007316554612637,-0.0021961145795346623,-0.04099688127030425,0.0009432088303049221,-121.10219053579162,-83.4500212695229,-0.19557672874970794
1.7059999999999889,0,0,0,-43.819213,172.65567,0.0,A,3,1,13,12.6,10.0,-0.068,0.998,-0.057,-0.6,0.9,0.7,101441,27.7,28.3,0,4.16,37.3,-0.0860346107954208,0.005563421847888014,-0.008709940298485621,0.00019037763291010883,0.0056877124030164546,-0.0554984716304139,0.0014689698642551987,-121.32205572548602,-83.48267367315371,-0.1631538217143645
1.7560000000000002,0,0,0,-43.819213,172.65567,0.0,A,3,1,13,12.6,10.0,-0.047,0.995,-0.084,0.2,4.5,0.4,101442,27.0,28.7,0,4.14,42.9,-0.1720685348458202,0.006136003794053712,-0.011640675619429637,0.00025388885702281217,0.017215565443606258,-0.0617309412073201,0.001071479100252358,-121.1382211364023,-83.48539672219206,-0.2904636530260549
1.8060000000000116,0,0,0,-43.819213,172.65567,0.0,A,3,1,13,12.6,10.0,-0.05,0.992,-0.113,0.0,2.0,-0.1,101442,27.5,28.7,0,4.11,71.2,-0.1720685348458202,0.0070506447426166635,-0.014617446525059323,0.00028790887576152723,0.019370072498903476,-0.057339895017840245,0.00028932164929593564,-120.70750407275261,-83.4460195720654,-0.48509790593194396
1.8559999999999945,0,0,0,-43.819213,172.65567,0.0,A,3,1,13,12.6,10.0,-0.066,0.992,-0.123,-0.5,-5.1,-0.1,101442,27.5,28.2,0,4.14,48.4,-0.1720685348458202,0.007816539723764395,-0.017356522835440584,0.0002948616189730764,0.011265726747016222,-0.0522231573974475,-1.1211920833874658e-05,-120.63530303392616,-83.40239385431533,-0.44468593808228957
1.906000000000006,0,0,0,-43.819213,172.65567,0.0,A,3,1,13,12.6,10.0,-0.096,0.994,-0.092,-1.0,-3.5,0.2,101442,27.0,28.7,0,4.14,47.1,-0.1720685348458202,0.008149512491453273,-0.020143552839567435,0.0003030000454230215,0.002053183960535899,-0.05925804276760117,0.0003367489788316049,-121.02743995410361,-83.38022236414245,-0.29420196523064884
1.9559999999999889,0,0,0,-43.819213,172.65567,0.0,A,3,1,13,12.6,10.0,-0.077,0.998,-0.083,-0.9,3.0,0.7,101442,27.7,28.7,0,4.15,44.3,-0.1720685348458202,0.008200772961699125,-0.023458174183499596,0.0003449720951293823,-2.765150701153872e-06,-0.07332681098973041,0.0013421330094234001,-121.33918885330792,-83.38709946202762,-0.14410628052983043
2.0060000000000002,0,0,0,-43.819213,172.65567,0.0,A,3,1,13,12.6,10.0,-0.062,0.997,-0.101,-0.9,2.1,1.3,101443,27.5,28.7,0,4.12,74.5,-0.258101772141013,0.0082097610136776,-0.027268402599403566,0.00044853863178823724,0.0003622872298400436,-0.07908232564639371,0.0028005284569298542,-121.11923781321367,-83.4026487733703,-0.20209507737462698
2.0560000000000116,0,0,0,-43.819213,172.65567,0.0,A,3,1,13,12.6,10.0,-0.054,0.993,-0.107,-1.0,-0.3,0.8,101443,27.5,28.7,0,4.14,47.5,-0.258101772141013,0.008176727535113457,-0.031177058583438135,0.000600651896686116,-0.0016836263724054961,-0.07726391371495349,0.003284002138983912,-120.72030157381762,-83.43357704433384,-0.4855524024040799
2.1069999999999993,0,0,0,-43.819213,172.65567,0.0,A,3,1,13,12.6,10.0,-0.049,0.995,-0.089,-0.8,-3.0,0.3,101443,27.2,28.7,0,4.15,40.5,-0.258101772141013,0.008137873845113369,-0.03504498550936324,0.0007556927483279363,0.00015995225475458883,-0.07441949514489102,0.0027960312587359945,-120.6469660887566,-83.45636035328992,-0.5620941786367668
2.1699999999999875,0,0,0,-43.819213,172.65567,0.0,A,3,1,13,12.6,10.0,-0.066,0.994,-0.1,-0.5,-2.6,-0.1,101443,27.2,28.7,0,4.11,68.0,-0.258101772141013,0.008214360973088673,-0.039754099715422195,0.0009226443622638953,0.0022682105381126774,-0.0750761939363738,0.0025040199773271915,-120.90644806151306,-83.45757806529475,-0.47549071919888264
2.210000000000008,0,0,0,-43.819213,172.65567,0.0,A,3,1,13,12.6,10.0,-0.079,0.994,-0.076,-0.6,-1.5,-0.1,101444,27.2,28.6,0,4.11,70.3,-0.3441343227217392,0.008314798475887748,-0.04288901592042201,0.0010171335282067634,0.0027536646018385138,-0.08166961631353697,0.002220438319813801,-121.12072257726808,-83.43979689459171,-0.3545487500948194
2.258999999999986,0,0,0,-43.819213,172.65567,0.0,A,3,1,13,12.6,10.0,-0.091,0.994,-0.112,-0.4,1.5,0.5,101444,27.5,28.6,0,4.17,41.9,-0.3441343227217392,0.008331621533155408,-0.047171925618562545,0.0011331495237709309,-0.0020670092031581833,-0.09314302442697073,0.0025149084379094333,-121.35023978858032,-83.4221393640647,-0.18532031490415107
2.3089999999999975,0,0,0,-43.819213,172.65567,0.0,A,3,1,13,12.6,10.0,-0.085,0.992,-0.101,-0.9,2.0,1.2,101444,27.7,28.7,0,4.16,39.6,-0.3441343227217392,0.00795811831800632,-0.052072620488815946,0.0012714474276231693,-0.012873119402801949,-0.10288477038312076,0.003017007716178844,-121.16683112014813,-83.41113221679132,-0.28201946365534897
2.359000000000009,0,0,0,-43.819213,172.65567,0.0,A,3,1,13,12.6,10.0,-0.055,0.995,-0.113,-1.4,0.7,1.2,101444,27.7,28.3,0,4.15,43.3,-0.3441343227217392,0.007152333916188998,-0.05727596024838156,0.001428443018040383,-0.01935825666988357,-0.10524881999945634,0.003262815900508277,-120.81009499068352,-83.43952506393593,-0.5280263020396042
2.408999999999992,0,0,0,-43.819213,172.65567,0.0,A,3,1,13,12.6,10.0,-0.036,0.997,-0.081,-1.5,-2.8,0.6,101444,27.2,28.3,0,4.15,36.8,-0.3441343227217392,0.006276777642616801,-0.06241133315323228,0.0015985926324434392,-0.015663994273016263,-0.10016609619464248,0.0035431686756162983,-120.62719070999165,-83.48927707572996,-0.6644701260964082
2.459000000000003,0,0,0,-43.819213,172.65567,0.0,A,3,1,13,12.6,10.0,-0.045,0.997,-0.081,-0.7,-2.6,0.2,101441,27.7,28.9,0,4.14,40.1,-0.0860346107954208,0.005775989298568242,-0.06734162073336919,0.0017723030965129697,-0.004367539488921528,-0.09704540701078902,0.0034052498871633384,-120.86763763560926,-83.52799637541422,-0.5509482704497486
2.508999999999986,0,0,0,-43.819213,172.65567,0.0,A,3,1,13,12.6,10.0,-0.057,0.996,-0.083,-0.7,-2.5,-0.4,101441,27.7,28.7,0,4.11,71.7,-0.0860346107954208,0.0057588690054551925,-0.07221443809738767,0.0019417383269217058,0.0036827277643993305,-0.09786728755001654,0.0033721593291884144,-121.06943383004607,-83.52207649912556,-0.46626475645240323
2.5589999999999975,0,0,0,-43.819213,172.65567,0.0,A,3,1,13,12.6,10.0,-0.082,0.989,-0.092,-0.4,-0.3,0.0,101441,27.5,28.7,0,4.15,43.8,-0.0860346107954208,0.005966526031170866,-0.07727899868835206,0.0020806312803910124,0.004623553264225709,-0.10471513608851304,0.0021835588095825793,-121.49119327726414,-83.50052790580416,-0.15516533494931936
2.609000000000009,0,0,0,-43.819213,172.65567,0.0,A,3,1,13,12.6,10.0,-0.086,0.992,-0.107,-0.4,0.1,0.4,101441,27.5,28.7,0,4.14,38.7,-0.0860346107954208,0.006006203658969481,-0.08275403280503368,0.0021605208936327294,-0.003036448152281457,-0.1142862285787022,0.0010120257200853784,-121.58292846770827,-83.47649852779305,-0.06550461469827416
2.658999999999992,0,0,0,-43.819213,172.65567,0.0,A,3,1,13,12.6,10.0,-0.07,0.995,-0.113,-0.8,1.8,0.7,101441,27.5,28.7,0,4.11,73.1,-0.0860346107954208,0.005600552591356494,-0.08857735533812434,0.0022265241701341643,-0.013189594552243557,-0.11864667274500384,0.0016281053399729122,-121.50547887923773,-83.4629310123092,-0.12599955767217036
2.709000000000003,0,0,0,-43.819213,172.65567,0.0,A,3,1,13,12.6,10.0,-0.058,0.997,-0.111,-1.3,-1.3,0.7,101442,27.5,28.7,0,4.12,64.3,-0.1720685348458202,0.004759586102905966,-0.09446305819225241,0.0023459694795581903,-0.020449064985769882,-0.1167814414200654,0.003149707036987044,-121.32254793840322,-83.47423464448924,-0.20710978920323228
2.758999999999986,0,0,0,-43.819213,172.65567,0.0,A,3,1,13,12.6,10.0,-0.062,0.995,-0.081,-1.3,-3.7,0.9,101442,27.0,27.9,0,4.14,40.1,-0.1720685348458202,0.0037424594039391747,-0.1003177136798387,0.002519584622359439,-0.02023600297291567,-0.11740477808346607,0.003794898675065259,-121.4082995295494,-83.506877073682,-0.17379629148866796
2.8089999999999975,0,0,0,-43.819213,172.65567,0.0,A,3,1,13,12.6,10.0,-0.041,0.995,-0.082,-1.2,-1.9,0.1,101442,27.0,29.0,0,4.15,39.1,-0.1720685348458202,0.002931919672705718,-0.10620553702599123,0.002690011133812138,-0.01218558627641523,-0.11810815576258137,0.0030221617830411547,-121.53962070795765,-83.54473338808688,-0.2153932484515333
2.859000000000009,0,0,0,-43.819213,172.65567,0.0,A,3,1,13,12.6,10.0,-0.055,0.994,-0.084,-1.0,-0.1,-0.4,101442,27.7,29.0,0,4.1,51.7,-0.1720685348458202,0.002524516513759039,-0.11207723858680108,0.0028150383726763097,-0.004110540081448224,-0.11675990666975933,0.0019789277715245813,-121.85993905852597,-83.55733513141645,0.0237856919668309
2.908999999999992,0,0,0,-43.819213,172.65567,0.0,A,3,1,13,12.6,10.0,-0.06,0.993,-0.103,-0.9,-4.1,-0.3,101442,27.2,28.4,0,4.14,48.4,-0.1720685348458202,0.002349494306134501,-0.11790444898877758,0.0028948738816598216,-0.002890348223535664,-0.1163285094093805,0.0012144925878169854,-122.23155519982167,-83.54803320327369,0.40516095548308134
2.959000000000003,0,0,0,-43.819213,172.65567,0.0,A,3,1,13,12.6,10.0,-0.071,0.996,-0.094,-1.1,-2.3,-0.4,101443,27.2,28.6,0,4.15,48.9,-0.258101772141013,0.0021356524324839445,-0.12375035950568218,0.002960432155280633,-0.005663326722484647,-0.11750791126675003,0.0014078383570148574,-122.74093294974743,-83.53687021116477,0.7239081349741764
3.008999999999986,0,0,0,-43.819213,172.65567,0.0,A,3,1,13,12.6,10.0,-0.089,0.993,-0.09,-1.4,1.4,-0.1,101443,27.5,28.6,0,4.11,72.2,-0.258101772141013,0.0017581519262865792,-0.12983574108026508,0.0030390762855685323,-0.00943669352541511,-0.12590735171664902,0.0017379268545022022,-123.24405787379202,-83.53105568606419,1.1269439734432682
3.0589999999999975,0,0,0,-43.819213,172.65567,0.0,A,3,1,13,12.6,10.0,-0.084,0.995,-0.094,-1.3,-3.4,0.5,101443,27.5,28.6,0,4.15,45.2,-0.258101772141013,0.0011481725792145008,-0.13639922371765298,0.0031331529828607088,-0.014962480357462477,-0.13663195377880777,0.002025141037184006,-123.52438580339312,-83.54570985025431,1.491937665893155
3.115000000000009,0,0,0,-43.819213,172.65567,0.0,A,3,1,13,12.6,10.0,-0.07,0.993,-0.076,-1.0,-1.5,1.0,101443,27.5,28.7,0,4.15,36.4,-0.258101772141013,0.00029833673520657635,-0.14431186605465857,0.0032366094411666333,-0.015388799785671398,-0.1459624153999049,0.0016697324737411036,-123.83406342713009,-83.57585792431819,1.625889127043491
3.1680000000000064,0,0,0,-43.81921,172.65567,0.0,A,3,1,13,12.6,10.0,-0.06,0.995,-0.07,-0.8,5.9,0.4,101443,27.5,28.9,0,4.14,42.4,-0.258101772141013,-0.0003092355418133371,-0.15222719491811018,0.0032906233939765488,-0.007538455950930289,-0.15272923982469966,0.0003685298964444855,-123.75276889140886,-83.6058881793511,1.4772536177500788
3.209000000000003,0,0,0,-43.81921,172.65567,0.0,A,3,1,13,12.6,10.0,-0.071,0.994,-0.08,-0.1,0.7,0.6,101444,27.7,28.9,0,4.11,69.8,-0.3441343227217392,-0.0005114954356202464,-0.15859352802939986,0.003290959375466629,-0.0023278803323343467,-0.1578235948723818,-0.0003521405554649614,-123.5278818574784,-83.6086301250321,1.5045610380616745
3.258999999999986,0,0,0,-43.81921,172.65567,0.0,A,3,1,13,12.6,10.0,-0.072,0.996,-0.077,0.5,-3.9,0.9,101444,27.7,28.6,0,4.12,70.3,-0.3441343227217392,-0.0005408505970647567,-0.16668475574354155,0.003265879292587218,0.0011536738745535312,-0.1658255136933965,-0.0006510627597118247,-123.2673296998254,-83.58827358476618,1.2900183376750307
3.3089999999999975,0,0,0,-43.81921,172.65567,0.0,A,3,1,13,12.6,10.0,-0.072,0.996,-0.079,0.4,1.7,0.9,101444,27.5,28.6,0,4.16,35.4,-0.3441343227217392,-0.00038677242244380413,-0.1751910047185112,0.0032376928334530534,0.005009453110283172,-0.1744244453053121,-0.0004763956056545119,-122.9816876960526,-83.55087534842303,0.818758626025412
3.359000000000009,0,0,0,-43.81921,172.65567,0.0,A,3,1,13,12.6,10.0,-0.076,0.991,-0.11,0.4,4.0,1.3,101444,27.5,28.5,0,4.12,68.9,-0.3441343227217392,-0.0002190615348222702,-0.1840504669361028,0.0032082951044096453,0.00169898239457666,-0.17995404339827165,-0.0006995135560815391,-122.44486063952901,-83.51730624221513,0.37646535642261203
3.408999999999992,0,0,0,-43.81921,172.65567,0.0,A,3,1,13,12.6,10.0,-0.055,0.994,-0.112,0.4,11.2,1.5,101444,27.5,28.9,0,4.15,37.7,-0.3441343227217392,-0.0003275156785678672,-0.19300694886839045,0.003168530035455974,-0.006037148144402019,-0.1783052338933563,-0.0008910892020658725,-121.6495227949996,-83.4937726924092,-0.2102905732209451
3.459000000000003,0,0,0,-43.81921,172.65567,0.0,A,3,1,13,12.6,10.0,-0.066,0.996,-0.143,-1.3,-0.5,0.8,101442,27.5,28.9,0,4.14,41.5,-0.1720685348458202,-0.0009542696652885898,-0.20174975828393213,0.003165838305134409,-0.019033011324421183,-0.1714071427282316,0.0007834199892032997,-120.42483504908421,-83.47422895300757,-0.8668723711592013
3.508999999999986,0,0,0,-43.81921,172.65567,0.0,A,3,1,13,12.6,10.0,-0.02,0.996,-0.092,-2.0,-7.3,0.2,101442,27.5,28.7,0,4.14,38.7,-0.1720685348458202,-0.002017053891917229,-0.21004348476480988,0.0032349610747680574,-0.023478357740738885,-0.1603419165069923,0.0019814907961435897,-120.42810702134658,-83.50946104816354,-0.87631410054077
3.5589999999999975,0,0,0,-43.81921,172.65567,0.0,A,3,1,13,12.6,10.0,-0.077,0.995,-0.068,-1.3,-2.4,-0.1,101442,27.5,28.4,0,4.14,42.4,-0.1720685348458202,-0.0029575493359442926,-0.21807188181999407,0.0033171447676461443,-0.01414146002033511,-0.16079396570030216,0.0013058569189791417,-121.158818154782,-83.55940676585364,-0.49583596465692653
3.609000000000009,0,0,0,-43.81921,172.65567,0.0,A,3,1,13,12.6,10.0,-0.087,0.992,-0.077,-1.2,0.6,-0.9,101442,27.2,28.4,0,4.15,39.6,-0.1720685348458202,-0.0035760956034123037,-0.2265073921025015,0.0033562389079623937,-0.010600390678379703,-0.17662644559991877,0.00025790869367047745,-121.60282615096857,-83.57121927203413,-0.1573484580499204
3.658999999999992,0,0,0,-43.81921,172.65567,0.0,A,3,1,13,12.6,10.0,-0.06,1.0,-0.06,-1.2,0.7,-0.7,101442,27.7,28.9,0,4.14,41.9,-0.1720685348458202,-0.003918219049008071,-0.23565953720284014,0.003362865794952313,-0.003084547145455658,-0.18945935841375114,7.166785926395489e-06,-122.17537157185035,-83.55731811351421,0.46144352867249355
3.709000000000003,0,0,0,-43.81921,172.65567,0.0,A,3,1,13,12.6,10.0,-0.102,0.993,-0.084,-0.7,1.7,0.1,101436,27.7,28.9,0,4.11,68.4,0.3441453109527267,-0.003965365440834685,-0.24549629164329997,0.0033730965300970855,0.0011986914723915096,-0.20401081920455272,0.0004020626198644102,-122.66593838119653,-83.54813549995659,1.002781062900399
3.758999999999986,0,0,0,-43.81921,172.65567,0.0,A,3,1,13,12.6,10.0,-0.096,0.991,-0.098,-0.5,-2.2,0.8,101436,27.7,28.9,0,4.15,39.6,0.3441453109527267,-0.0041143592345666375,-0.25612008584973045,0.0033837813829786273,-0.007158443221671638,-0.22094094905281206,2.533149539741636e-05,-122.68857302285838,-83.53923396573758,1.1235286435350778
3.8089999999999975,0,0,0,-43.81921,172.65567,0.0,A,3,1,13,12.6,10.0,-0.064,0.995,-0.097,-0.7,0.8,0.8,101436,27.7,29.1,0,4.11,68.4,0.3441453109527267,-0.004624964718908402,-0.2673511048159222,0.003381223335767965,-0.013265776151994306,-0.22829980959475693,-0.00012765338382388135,-122.59826170605531,-83.54079933445824,0.9343633998821158
3.859000000000009,0,0,0,-43.81921,172.65567,0.0,A,3,1,13,12.6,10.0,-0.062,0.995,-0.072,-0.2,-4.6,1.2,101436,27.7,28.9,0,4.11,78.7,0.3441453109527267,-0.005196120397292845,-0.2788594221947855,0.0033675980820696894,-0.009580450983378216,-0.23203288555966908,-0.00041735676410701564,-122.40524550541036,-83.55074583194798,0.7927970936366638
3.908999999999992,0,0,0,-43.81921,172.65567,0.0,A,3,1,13,12.6,10.0,-0.068,0.998,-0.079,0.3,-1.0,1.2,101436,27.7,28.9,0,4.15,43.8,0.3441453109527267,-0.005501643836765623,-0.2906379703665064,0.0033487284576729837,-0.0026404865955370737,-0.2391090413093282,-0.00033742821176146673,-122.21409483184668,-83.55019952297461,0.381389856563173
3.959000000000003,0,0,0,-43.81921,172.65567,0.0,A,3,1,13,12.6,10.0,0.008,1.001,-0.138,1.3,10.1,1.6,101441,28.0,29.0,0,4.14,48.9,-0.0860346107954208,-0.005570189858702601,-0.30220105119914664,0.0033835855297319434,-0.00010135428194143906,-0.2234141919961752,0.0017317110941195333,-121.72680812370469,-83.52817136380382,-0.1469048312553576
4.008999999999986,0,0,0,-43.81921,172.65567,0.0,A,3,1,13,12.6,10.0,-0.025,0.995,-0.137,-0.8,9.8,-0.1,101441,28.0,28.9,0,4.14,45.7,-0.0860346107954208,-0.005670103870048954,-0.3125918569238614,0.0035229135497089085,-0.003895206171914047,-0.1922180369925562,0.0038414097049609725,-120.314341061305,-83.47261727558094,-1.0478147085719047
4.0589999999999975,0,0,0,-43.81921,172.65567,0.0,A,3,1,13,12.6,10.0,-0.061,0.996,-0.105,-0.1,-8.5,0.7,101441,27.7,28.9,0,4.11,77.3,-0.0860346107954208,-0.00600782415487953,-0.32191028163289664,0.0037430377378559004,-0.009613605221305931,-0.18051895136876947,0.0049635578209167065,-120.03131090286823,-83.46361401888512,-0.8270647659483847
4.115000000000009,0,0,0,-43.81921,172.65567,0.0,A,3,1,13,12.6,10.0,-0.062,0.99,-0.1,-1.5,1.1,0.1,101441,27.2,28.3,0,4.14,38.2,-0.0860346107954208,-0.006631624109179893,-0.3320447166364483,0.004006413125192451,-0.01266496457513096,-0.18142515590085667,0.004442706012529591,-120.22954776806351,-83.44213594502506,-1.0927316758823515
4.168000000000006,0,0,0,-43.81921,172.65567,0.0,A,3,1,13,12.6,10.0,-0.066,0.994,-0.101,-1.0,-0.2,0.5,101441,27.2,28.5,0,4.14,41.0,-0.0860346107954208,-0.007375971125682326,-0.3417202708098233,0.0042144084567453145,-0.015423602085339654,-0.18369009592463414,0.0034061744234279295,-120.47362584226052,-83.46988092206259,-0.7751967934416661
4.209000000000003,0,0,0,-43.81921,172.65567,0.0,A,3,1,13,12.6,10.0,-0.069,0.994,-0.081,-1.0,-4.1,0.5,101440,27.2,28.5,0,4.11,65.2,0.0,-0.008001374973075008,-0.3493505374635714,0.004348000518601637,-0.015083902665525242,-0.1885180335265231,0.0031105115207834314,-120.5024137196227,-83.48193231699733,-0.7442840730366488
4.258999999999986,0,0,0,-43.81921,172.65567,0.0,A,3,1,13,12.6,10.0,-0.07,0.997,-0.073,-0.5,1.2,0.6,101440,27.7,28.6,0,4.14,42.4,0.0,-0.008613291665873612,-0.35903075219307207,0.004497489527008779,-0.009392765046427238,-0.1986905556536343,0.0028690488155042864,-120.73288971286485,-83.49661940477492,-0.7062154198606293
4.3089999999999975,0,0,0,-43.81921,172.65567,0.0,A,3,1,13,12.6,10.0,-0.044,0.994,-0.105,-0.6,5.0,0.3,101440,27.7,29.0,0,4.13,65.2,0.0,-0.008987519558856944,-0.36901172277253363,0.0046404560171411525,-0.005576350672902674,-0.20054826752473856,0.002849610789789347,-120.54898946384762,-83.49234357073993,-0.818491476067571
4.359000000000009,0,0,0,-43.81921,172.65567,0.0,A,3,1,13,12.6,10.0,-0.042,0.993,-0.132,-0.6,-5.7,0.1,101440,27.7,29.0,0,4.15,41.9,0.0,-0.009391185241003712,-0.37875641190136033,0.004783549458085406,-0.01057027661296432,-0.18923929762824174,0.002874126847979513,-120.31083438013869,-83.48473490903858,-0.7941423444906127
4.408999999999992,0,0,0,-43.81921,172.65567,0.0,A,3,1,13,12.6,10.0,-0.061,0.993,-0.091,-1.5,-7.3,-0.3,101440,26.7,28.1,0,4.14,41.5,0.0,-0.01002416411745573,-0.38806768239471484,0.004919407286412432,-0.014748878445125055,-0.18321152210606573,0.002560186285103362,-120.68293734966808,-83.47204811024253,-0.6940445106610166
4.459000000000003,0,0,0,-43.81921,172.65567,0.0,A,3,1,13,12.6,10.0,-0.076,0.994,-0.081,-1.3,-2.0,-0.1,101439,26.7,28.9,0,4.14,45.7,0.0860352975608124,-0.01070817043632096,-0.39740352415080316,0.005027309945027125,-0.012611374309477907,-0.1902221481373815,0.0017559200594833803,-121.48706003045878,-83.48745729557706,-0.2396355342535858
4.508999999999986,0,0,0,-43.81921,172.65567,0.0,A,3,1,13,12.6,10.0,-0.086,0.996,-0.072,-1.5,2.6,-0.2,101439,27.7,28.9,0,4.17,37.7,0.0860352975608124,-0.01126817561669125,-0.40726681979774026,0.00511132906144542,-0.009788832905341325,-0.20430967774023662,0.00160484459724958,-121.90787891310487,-83.49905997511145,0.09569046686541192
4.5589999999999975,0,0,0,-43.81921,172.65567,0.0,A,3,1,13,12.6,10.0,-0.086,0.994,-0.088,-0.9,-2.0,0.5,101439,28.0,29.2,0,4.11,71.2,0.0860352975608124,-0.011758253709863503,-0.4178556811177153,0.00519577869841745,-0.009814290821544319,-0.21924477505866938,0.001773140881630816,-122.18392445933523,-83.5162546610485,0.5167836174283177
4.609000000000009,0,0,0,-43.81921,172.65567,0.0,A,3,1,13,12.6,10.0,-0.087,0.993,-0.077,-0.4,0.2,0.9,101439,28.0,28.6,0,4.14,42.9,0.0860352975608124,-0.012283525496191258,-0.4291757536364887,0.0052738416904202015,-0.01119658063156109,-0.23355812569216242,0.0013493787984785624,-122.28974224591539,-83.52658466714618,0.5350652918451817
4.658999999999992,0,0,0,-43.81921,172.65567,0.0,A,3,1,13,12.6,10.0,-0.087,0.996,-0.056,0.2,0.1,1.5,101439,27.5,28.6,0,4.15,45.2,0.0860352975608124,-0.012715242737828068,-0.44132181310000884,0.005324454127769885,-0.006072109033917143,-0.25228425284880984,0.0006751186955094772,-122.0189575123545,-83.52639623406579,0.28503352667093396
4.709000000000003,0,0,0,-43.81921,172.65567,0.0,A,3,1,13,12.6,10.0,-0.093,0.985,-0.038,0.4,13.4,1.0,101439,27.5,28.6,0,4.14,39.6,0.0860352975608124,-0.012712234606952092,-0.4545719370506997,0.005271391731273768,0.006192434268956134,-0.2777207051787048,-0.00279761455535366,-121.38979760383188,-83.51622924790964,-0.3307113699275637
4.758999999999986,0,0,0,-43.81921,172.65567,0.0,A,3,1,13,12.6,10.0,-0.066,0.997,-0.129,-0.1,-4.4,0.9,101439,27.5,28.9,0,4.15,42.4,0.0860352975608124,-0.012402407561550395,-0.4687729493429006,0.005086220333850588,0.006200647547115954,-0.2903197865095236,-0.004609241341576106,-120.24260858806701,-83.48359130693144,-0.7985606087320698
4.8089999999999975,0,0,0,-43.81921,172.65567,0.0,A,3,1,13,12.6,10.0,-0.044,0.992,-0.082,-0.7,-1.0,0.2,101439,27.7,28.7,0,4.14,49.8,0.0860352975608124,-0.012153751398509192,-0.4832208565582926,0.0048613915992744925,0.0037455989745299456,-0.2875965021060261,-0.004383908041465647,-120.13797938047261,-83.46947141378209,-1.112877744844733
4.859000000000009,0,0,0,-43.81921,172.65567,0.0,A,3,1,13,12.6,10.0,-0.057,0.993,-0.125,-1.2,3.4,-0.4,101439,27.5,28.7,0,4.11,77.7,0.0860352975608124,-0.011978988284647763,-0.49749716183056336,0.004617960592368453,0.0032449255799256297,-0.2834557087846748,-0.005353332234773722,-120.25970304514959,-83.46368035445882,-1.028257382866953
4.908999999999992,0,0,0,-43.81921,172.65567,0.0,A,3,1,13,12.6,10.0,-0.074,0.995,-0.086,-1.0,-6.6,-0.1,101439,27.5,28.4,0,4.11,78.7,0.0860352975608124,-0.011941829269103798,-0.5117065588023098,0.004357326039314656,-0.0017585649581665064,-0.28492017008537246,-0.005072049887381709,-120.49747416180135,-83.46425534852641,-0.6053907013458526
4.959000000000003,0,0,0,-43.81921,172.65567,0.0,A,3,1,13,12.6,10.0,-0.081,0.993,-0.079,-1.2,-5.8,0.2,101439,27.0,28.6,0,4.14,51.2,0.0860352975608124,-0.01199166743072,-0.526251400361413,0.004091764945848084,-0.0002349615064811399,-0.2968734922786292,-0.005550393851278717,-121.0781214421919,-83.46357376053946,-0.3406757396218064
5.008999999999986,0,0,0,-43.81921,172.65567,0.0,A,3,1,13,12.6,10.0,-0.07,0.994,-0.077,-0.6,2.7,0.8,101439,27.5,28.6,0,4.15,45.2,0.0860352975608124,-0.01190927740606624,-0.5413893028442206,0.0037896497351863623,0.0035305624926326535,-0.3086426070338785,-0.006534214575194277,-121.55244171120651,-83.47895421400831,-0.14272461485895446
5.0589999999999975,0,0,0,-43.81921,172.65567,0.0,A,3,1,13,12.6,10.0,-0.062,0.995,-0.097,-0.2,10.2,0.9,101439,27.5,28.6,0,4.11,75.9,0.0860352975608124,-0.011672684157956826,-0.5569567641072455,0.0034544380908201906,0.00593316743174182,-0.3140558434869757,-0.006874251199449545,-121.2413715251656,-83.48432412226254,-0.30751292394051094
5.121000000000009,0,0,0,-43.81921,172.65567,0.0,A,3,1,13,12.5,10.0,-0.051,0.994,-0.123,-0.1,-2.0,0.9,101439,27.5,28.7,0,4.15,39.6,0.0860352975608124,-0.01148710368267131,-0.5762831961191691,0.003046974143926844,5.329951295106328e-05,-0.30937744722011984,-0.006269747087430099,-120.23259401368875,-83.47256784245653,-0.6709315391965517
5.164999999999992,0,0,0,-43.81921,172.65567,0.0,A,3,1,13,12.5,10.0,-0.067,0.994,-0.095,-1.1,-4.6,0.1,101443,27.5,28.7,0,4.15,40.5,-0.258101772141013,-0.011579092637881405,-0.5898594261039095,0.0027762027092465883,-0.004234615658866078,-0.3077239157228689,-0.006038045398040896,-120.03545932872905,-83.4601114867972,-0.9469937060763838
5.211999999999989,0,0,0,-43.81921,172.65567,0.0,A,3,1,13,12.5,10.0,-0.048,0.994,-0.106,-1.0,-0.5,0.4,101443,27.5,29.0,0,4.14,40.5,-0.258101772141013,-0.011798253245456209,-0.6043120405732301,0.0024882323756284415,-0.005091367642190041,-0.3072809553120875,-0.00621601135166825,-120.43709803765819,-83.4685375977475,-0.7486597511672366
5.2620000000000005,0,0,0,-43.81921,172.65567,0.0,A,3,1,13,12.5,10.0,-0.095,0.994,-0.089,-1.1,1.4,0.3,101443,28.0,28.2,0,4.14,43.3,-0.258101772141013,-0.012135031243355476,-0.6198241276321405,0.0021790534160898317,-0.008379752273777548,-0.3132025270441877,-0.006151147029873324,-120.52485307796543,-83.48069868821798,-0.6730678543343956
5.312000000000012,0,0,0,-43.81921,172.65567,0.0,A,3,1,13,12.5,10.0,-0.078,0.991,-0.07,-1.0,-2.7,0.5,101443,27.0,28.2,0,4.14,41.5,-0.258101772141013,-0.012547909567514184,-0.635901985791798,0.0018438965709829678,-0.00813538069256705,-0.3299117993419675,-0.007255126774398183,-120.57787476869039,-83.49461353816783,-0.5368198734565696
5.361999999999995,0,0,0,-43.81921,172.65567,0.0,A,3,1,13,12.5,10.0,-0.053,0.996,-0.082,-0.4,3.2,0.6,101443,27.0,28.6,0,4.15,39.6,-0.258101772141013,-0.012781265096286501,-0.6526147835259262,0.0014467372300396293,-0.0011988404583288424,-0.3386001100233855,-0.008631246863340769,-120.73851645123489,-83.50929757187613,-0.49858541975596604
5.412000000000006,0,0,0,-43.81921,172.65567,0.0,A,3,1,13,12.5,10.0,-0.051,0.994,-0.1,0.1,2.2,0.5,101441,27.5,28.2,0,4.11,67.1,-0.0860346107954208,-0.012737842873688858,-0.6695270744187996,0.0010074513552551186,0.0029357293622341765,-0.337891525691398,-0.008940188128035667,-120.43212384147071,-83.50070502824657,-0.633496780769783
5.461999999999989,0,0,0,-43.81921,172.65567,0.0,A,3,1,13,12.5,10.0,-0.054,0.994,-0.115,-0.6,-1.6,0.1,101441,27.2,28.2,0,4.15,45.2,-0.0860346107954208,-0.012660086349008904,-0.6863124355038197,0.000560691942685885,0.00017453162496504967,-0.33352291770963893,-0.008930188374739773,-120.10405854256831,-83.46791593518479,-0.840552329126673
5.5120000000000005,0,0,0,-43.81921,172.65567,0.0,A,3,1,13,12.5,10.0,-0.066,0.996,-0.088,-0.9,-2.7,0.1,101441,27.2,28.8,0,4.15,40.5,-0.0860346107954208,-0.012698641228353456,-0.7029980714951423,0.000124658426909067,-0.0017167267987467504,-0.33390252194310993,-0.008511152256328978,-120.27149974943053,-83.45529064396084,-0.740110684763996
5.562000000000012,0,0,0,-43.81921,172.65567,0.0,A,3,1,13,12.5,10.0,-0.102,0.993,-0.093,-1.2,-1.2,0.5,101441,28.0,28.7,0,4.15,44.3,-0.0860346107954208,-0.012867306681092287,-0.7200184425477569,-0.0002927449867878318,-0.005029891310804929,-0.34691232016132145,-0.008184984291543176,-120.55960156999423,-83.4555556343753,-0.5735765003927736
5.611999999999995,0,0,0,-43.81921,172.65567,0.0,A,3,1,13,12.5,10.0,-0.088,0.993,-0.091,-1.2,-1.1,1.0,101441,27.5,28.7,0,4.14,41.5,-0.0860346107954208,-0.01329139958599816,-0.7377900963760776,-0.0007024225740437618,-0.011933824885435821,-0.3639538329717502,-0.008202119198699617,-120.68944796729006,-83.47884745631758,-0.49084578281902924
5.662000000000006,0,0,0,-43.81921,172.65567,0.0,A,3,1,13,12.5,10.0,-0.04,0.996,-0.099,-1.0,1.5,1.0,101441,27.5,28.7,0,4.14,39.6,-0.0860346107954208,-0.013900837057384662,-0.7560687552153538,-0.0011130622454553476,-0.012443673970018717,-0.36719252059912916,-0.008223467657760077,-120.62612978049492,-83.51488155177071,-0.5975030916885847
5.711999999999989,0,0,0,-43.81921,172.65567,0.0,A,3,1,13,12.5,10.0,-0.042,0.999,-0.094,-0.8,2.7,0.5,101441,27.5,28.7,0,4.15,39.6,-0.0860346107954208,-0.014409075223262412,-0.7742621922373546,-0.0015026602646198142,-0.007885852665098243,-0.36054496028115013,-0.0073604531088239025,-120.38669594525716,-83.54226789016548,-0.7505650576717885
5.7620000000000005,0,0,0,-43.81921,172.65567,0.0,A,3,1,13,12.5,10.0,-0.058,0.996,-0.086,-0.6,-1.5,-0.1,101441,27.5,28.7,0,4.11,74.0,-0.0860346107954208,-0.014682028138612812,-0.7922633755355551,-0.0018505009276808134,-0.0030322639489152713,-0.35950237164670884,-0.006553173413612902,-120.23219634380958,-83.54834486592742,-0.7577631438708823
5.812000000000012,0,0,0,-43.81921,172.65567,0.0,A,3,1,13,12.5,10.0,-0.074,0.99,-0.08,-0.4,-1.6,-0.2,101441,27.2,28.4,0,4.15,47.1,-0.0860346107954208,-0.014744852758771862,-0.8104235432019771,-0.0022099401081720916,0.000519279142553836,-0.3669043350100011,-0.007824393806034948,-120.47173715255462,-83.53063373062218,-0.5797447159900563
5.861999999999995,0,0,0,-43.81921,172.65567,0.0,A,3,1,13,12.5,10.0,-0.081,0.993,-0.088,0.0,2.0,0.2,101441,27.2,28.6,0,4.14,46.6,-0.0860346107954208,-0.01471003543483891,-0.8290625829243862,-0.0026418801419784087,0.0008734138147647557,-0.3786572538866184,-0.00945320754622363,-120.70808247978061,-83.50168678920326,-0.40996630848404036
5.912000000000006,0,0,0,-43.81921,172.65567,0.0,A,3,1,13,12.5,10.0,-0.063,0.993,-0.111,0.0,1.3,0.9,101440,27.7,28.6,0,4.11,68.4,0.0,-0.014775675323055858,-0.848133038896408,-0.003122293119820476,-0.0034990093434420985,-0.384160984994081,-0.009763311567454696,-120.52360645101308,-83.4657047652139,-0.4825641976031955
5.961999999999989,0,0,0,-43.81921,172.65567,0.0,A,3,1,13,12.5,10.0,-0.062,0.997,-0.114,-1.0,6.0,1.0,101440,27.2,28.4,0,4.14,48.0,0.0,-0.015127234462065545,-0.8673042862495649,-0.0035849551336446625,-0.010563356216950204,-0.38268890913245734,-0.008743168985519077,-120.11266169188517,-83.44734837245662,-0.8183492054381636
6.0120000000000005,0,0,0,-43.81921,172.65567,0.0,A,3,1,13,12.5,10.0,-0.072,0.996,-0.091,-1.5,-4.1,0.9,101440,27.2,28.5,0,4.14,49.4,0.0,-0.01575417439373328,-0.8865230765528492,-0.003987348921343968,-0.01451424104975349,-0.38606270299874196,-0.007352582522449495,-119.64721115984035,-83.47454442013326,-0.972455121923107
6.062000000000012,0,0,0,-43.81921,172.65567,0.0,A,3,1,13,12.5,10.0,-0.022,0.995,-0.095,-1.2,-2.2,0.6,101440,27.2,28.5,0,4.14,48.4,0.0,-0.016363868007679423,-0.9057630892119458,-0.004357667814095647,-0.009873503508086641,-0.3835378033649452,-0.007460173187614289,-119.83220257767614,-83.52092431762449,-0.9801661729208904
6.126000000000005,0,0,0,-43.81921,172.65567,0.0,A,3,1,13,12.5,10.0,-0.086,0.995,-0.072,-0.5,2.0,-0.1,101440,27.5,28.6,0,4.14,40.5,0.0,-0.01673082264495224,-0.9304171868141629,-0.004860055447745843,-0.0015938289066901364,-0.3869027467044225,-0.008239440363956078,-120.01135449201881,-83.55407579453382,-0.925663597187437
6.167000000000002,0,0,0,-43.81921,172.65567,0.0,A,3,1,13,12.5,10.0,-0.035,0.992,-0.121,0.1,2.9,0.4,101438,27.5,28.6,0,4.13,44.3,0.1720712818972014,-0.01680853278049785,-0.9463137318375835,-0.00520695791146646,-0.0021969094126081923,-0.3885384739503031,-0.008682631037050938,-120.04699027652966,-83.53609577593112,-0.7970880679278067
6.215000000000003,0,0,0,-43.81921,172.65567,0.0,A,3,1,13,12.5,10.0,-0.037,0.996,-0.106,-0.1,0.4,0.8,101438,27.7,28.6,0,4.14,39.6,0.1720712818972014,-0.0169479683311184,-0.9646764901282747,-0.005627385588222975,-0.0036129051965811424,-0.3765764548284703,-0.00883518882780317,-119.7358379151242,-83.5020785439413,-0.9582168491130907
6.264999999999986,0,0,0,-43.81921,172.65567,0.0,A,3,1,13,12.5,10.0,-0.061,0.997,-0.093,-0.8,0.7,0.4,101438,27.7,28.9,0,4.11,72.2,0.1720712818972014,-0.017091373803980375,-0.9834261813056339,-0.006050471870360112,-0.0021233137178998203,-0.3734111922661505,-0.008088262457688095,-119.42983860230929,-83.48511244416031,-1.2336429735732408
6.314999999999998,0,0,0,-43.81921,172.65567,0.0,A,3,1,13,12.5,10.0,-0.047,0.995,-0.123,-1.1,-0.6,0.5,101438,27.7,28.9,0,4.15,36.8,0.1720712818972014,-0.01727990762575311,-1.0020212113750295,-0.006428521007186666,-0.00541803915300779,-0.3703900105095056,-0.007033703015370606,-119.41272670424284,-83.48872001175049,-1.2032113217876714
6.365000000000009,0,0,0,-43.81921,172.65567,0.0,A,3,1,13,12.5,10.0,-0.072,0.995,-0.091,-1.2,-4.6,0.4,101438,28.0,28.9,0,4.14,41.0,0.1720712818972014,-0.01766062262445788,-1.0205286605518735,-0.006763464458113896,-0.00981056079517955,-0.36990795656408676,-0.006364035021715544,-119.48719206649646,-83.50784595112806,-1.1460310602549393
6.414999999999992,0,0,0,-43.81921,172.65567,0.0,A,3,1,13,12.5,10.0,-0.079,0.993,-0.065,-1.6,-0.8,-0.2,101437,27.7,28.7,0,4.14,40.1,0.2581079530244445,-0.018062770952193934,-1.0393571780640203,-0.007101041919076279,-0.006275372314268149,-0.38323274392203693,-0.00713906341678439,-119.82245633659728,-83.52881985519271,-1.0276630475263333
6.465000000000003,0,0,0,-43.81921,172.65567,0.0,A,3,1,13,12.5,10.0,-0.058,0.993,-0.099,-0.9,-2.9,0.2,101437,27.7,28.4,0,4.11,72.2,0.2581079530244445,-0.018292602295853486,-1.058743336113229,-0.0074895010068344965,-0.002917881432111806,-0.3922135780461381,-0.008399300093540776,-120.28722826368593,-83.55198619840476,-0.5877512066933147
6.514999999999986,0,0,0,-43.81921,172.65567,0.0,A,3,1,13,12.5,10.0,-0.077,0.995,-0.085,-0.9,-3.1,0.2,101437,27.5,28.4,0,4.15,42.4,0.2581079530244445,-0.018454543830924635,-1.078496402947261,-0.007917283196254274,-0.003559779970736395,-0.3979090953154114,-0.00871198748325613,-120.549706281943,-83.55478178225452,-0.4570999253287023
6.564999999999998,0,0,0,-43.81921,172.65567,0.0,A,3,1,13,12.5,10.0,-0.079,0.997,-0.069,-0.8,-2.0,0.1,101437,27.7,28.8,0,4.14,42.4,0.2581079530244445,-0.01855614967559737,-1.0987330303740785,-0.0083466598008385,-0.0005044538161721496,-0.41155600175710455,-0.008463076700109014,-120.8223545729605,-83.55750883271723,-0.32627800000220486
6.615000000000009,0,0,0,-43.81921,172.65567,0.0,A,3,1,13,12.5,10.0,-0.087,0.994,-0.093,-0.6,-0.2,0.6,101437,27.7,28.7,0,4.11,72.2,0.2581079530244445,-0.018579274500282007,-1.1196729069952043,-0.008761277628419132,-0.0004205391712130858,-0.42603906308773315,-0.008121636403112505,-121.0553023890396,-83.5533118764974,-0.18005906572960148
6.664999999999992,0,0,0,-43.81921,172.65567,0.0,A,3,1,13,12.5,10.0,-0.057,0.992,-0.105,-1.0,-0.4,1.0,101434,27.5,28.7,0,4.15,42.9,0.5162220872582411,-0.01871947964159877,-1.1411056396955723,-0.009175771874477386,-0.005187666481459472,-0.43127024492728405,-0.008458133439223262,-120.96293060778872,-83.55340330095224,-0.27065656524696996
6.715000000000003,0,0,0,-43.81921,172.65567,0.0,A,3,1,13,12.5,10.0,-0.063,0.994,-0.104,-1.3,-2.3,0.7,101434,27.5,28.6,0,4.14,41.0,0.5162220872582411,-0.01908249200668356,-1.1626419993431756,-0.009609155703864558,-0.009332828121928777,-0.43018414097665025,-0.008877219736259665,-120.81921101916475,-83.58090484093988,-0.42298810686984756
6.764999999999986,0,0,0,-43.81921,172.65567,0.0,A,3,1,13,12.5,10.0,-0.07,0.998,-0.067,-1.8,-4.1,0.2,101434,27.5,28.8,0,4.14,45.7,0.5162220872582411,-0.019498552461517115,-1.1843132689150364,-0.010044655560381624,-0.00730959007141914,-0.4366666418980773,-0.008542774524428942,-120.95308444279024,-83.61357771584049,-0.3915715850471194
6.814999999999998,0,0,0,-43.81921,172.65567,0.0,A,3,1,13,12.5,10.0,-0.022,0.997,-0.123,-1.2,0.2,0.0,101434,28.0,28.8,0,4.14,47.5,0.5162220872582411,-0.019787297719743066,-1.2060252827055629,-0.010448769505082472,-0.004240220257616234,-0.4318139097227831,-0.007621783263601325,-121.48662748778261,-83.65465133042474,-0.04856651589457759
6.865000000000009,0,0,0,-43.81921,172.65567,0.0,A,3,1,13,12.5,10.0,-0.106,0.999,-0.049,-0.1,-0.4,-0.1,101434,28.0,28.7,0,4.12,44.7,0.5162220872582411,-0.019948921725940327,-1.2277313396463305,-0.010797955408195661,-0.0022247399902727344,-0.43642836790772893,-0.006345652860923035,-121.74420533670697,-83.66467154390901,0.23308118076664192
6.914999999999992,0,0,0,-43.81921,172.65567,0.0,A,3,1,13,12.5,10.0,-0.089,0.99,-0.049,1.7,2.2,1.3,101428,28.0,28.8,0,4.14,47.1,1.03246890067285,-0.019840556242422428,-1.2502514948225936,-0.011144895142491161,0.00655935933099014,-0.46437783914310277,-0.007531936510901689,-121.80948784592847,-83.62521518120778,0.2910671503775209
6.965000000000003,0,0,0,-43.81921,172.65567,0.0,A,3,1,13,12.5,10.0,-0.031,0.996,-0.08,1.3,19.3,0.7,101428,27.7,28.8,0,4.11,75.4,1.03246890067285,-0.01920468386775408,-1.2736889046280384,-0.011578457766288339,0.018875535655737973,-0.4731185530744797,-0.009810568440981451,-120.79920568202579,-83.54528381876396,-0.6024615932332329
7.014999999999986,0,0,0,-43.81921,172.65567,0.0,A,3,1,13,12.5,10.0,0.0,0.994,-0.201,0.9,0.8,0.7,101428,26.5,27.9,0,4.14,44.7,1.03246890067285,-0.018451015703735363,-1.2966488789400274,-0.01204146717922285,0.011271190905021034,-0.4452804194053949,-0.008709808076405312,-119.27675678508349,-83.46546484537976,-1.1510837067350188
7.064999999999998,0,0,0,-43.81921,172.65567,0.0,A,3,1,13,12.5,10.0,-0.015,0.997,-0.175,-1.8,-9.1,-0.5,101428,26.5,28.6,0,4.14,46.6,1.03246890067285,-0.018513036763332588,-1.3178596078886191,-0.012390265242312652,-0.013752033288909508,-0.4031487385380748,-0.005242114447183598,-118.7819038523577,-83.40205275642798,-1.5965112551190077
7.127999999999986,0,0,0,-43.81921,172.65567,0.0,A,3,1,13,12.4,10.0,-0.099,1.0,-0.097,-3.2,-13.1,-0.4,101436,27.5,28.4,0,4.13,39.1,0.3441453109527267,-0.019981360978375644,-1.3429119624340853,-0.012571039304781062,-0.032861433855323245,-0.39216410417528974,-0.0004967446787987797,-120.07358391104496,-83.4336116585752,-0.8577042185588711
7.170999999999992,0,0,0,-43.81921,172.65567,0.0,A,3,1,13,12.4,10.0,-0.125,0.996,-0.016,-1.6,-4.5,0.4,101436,27.2,28.4,0,4.14,41.9,0.3441453109527267,-0.021324926971779904,-1.3603880971368705,-0.012569612613476036,-0.029630007698354024,-0.4206793703727427,0.0005631024139162819,-121.37184030787085,-83.5077887005547,-0.10726226230578341
7.218999999999994,0,0,0,-43.81921,172.65567,0.0,A,3,1,13,12.4,10.0,-0.085,0.993,-0.034,-0.1,7.8,1.8,101436,27.2,28.9,0,4.14,38.7,0.3441453109527267,-0.022336228215294504,-1.3814434703945149,-0.01259172182286596,-0.012507544114752654,-0.45662784869574025,-0.0014843194718297148,-121.78351464260966,-83.54383901540841,0.10159725511850476
7.2690000000000055,0,0,0,-43.81921,172.65567,0.0,A,3,1,13,12.4,10.0,-0.089,0.99,-0.062,2.1,19.2,2.4,101436,28.0,28.9,0,4.14,43.8,0.3441453109527267,-0.022648308552112435,-1.4048830924460638,-0.012741846592568383,2.4330642038300487e-05,-0.48095703336600343,-0.0045206713162658525,-120.72287357725592,-83.55373109714509,-0.560891470063896
7.318999999999988,0,0,0,-43.81921,172.65567,0.0,A,3,1,13,12.4,10.0,-0.033,1.0,-0.172,-0.5,2.9,-0.1,101436,28.0,28.9,0,4.14,39.6,0.3441453109527267,-0.02288006073459411,-1.4288725604146344,-0.012936472794947303,-0.009294417941308466,-0.4786216853771505,-0.003264376778893599,-118.38602843111777,-83.48051766087106,-1.9341688590197934
7.369,0,0,0,-43.81921,172.65567,0.0,A,3,1,13,12.4,10.0,-0.044,0.993,-0.151,-1.5,-14.8,-0.3,101436,28.0,28.9,0,4.14,41.0,0.3441453109527267,-0.023891384327501004,-1.4522594757548937,-0.01301176012631111,-0.031158525774958146,-0.4568549282330055,0.0002528835243420266,-118.38810124426114,-83.45910495202072,-1.773707843980473
7.419000000000011,0,0,0,-43.81921,172.65567,0.0,A,3,1,13,12.4,10.0,-0.049,0.993,-0.109,-3.5,-7.0,-1.0,101436,27.7,28.9,0,4.14,35.9,0.3441453109527267,-0.025717414786646044,-1.4748228530667102,-0.012987228030105843,-0.04188269259082687,-0.44568016423945184,0.0007284003238684223,-119.56112397659075,-83.47640376960304,-1.3254278172279093
7.468999999999994,0,0,0,-43.81921,172.65567,0.0,A,3,1,13,12.4,10.0,-0.052,0.992,-0.055,-1.8,-3.8,0.5,101436,27.7,29.0,0,4.11,72.2,0.3441453109527267,-0.027611824705730443,-1.4971374353134748,-0.013000315083091516,-0.033893704172574875,-0.4469031256314374,-0.0012518824432955675,-121.06136988470402,-83.5611777952524,-0.1553578086852275
7.5190000000000055,0,0,0,-43.81921,172.65567,0.0,A,3,1,13,12.4,10.0,-0.124,0.996,-0.039,-0.9,-2.0,0.6,101436,27.7,28.6,0,4.15,40.5,0.3441453109527267,-0.02899206605918444,-1.520105704089418,-0.013108560093893969,-0.02131594996557245,-0.4718276254060769,-0.0030779179888015605,-121.46353236850474,-83.61000742144572,0.07056609650154665
7.568999999999988,0,0,0,-43.81921,172.65567,0.0,A,3,1,13,12.4,10.0,-0.081,0.997,-0.078,0.2,2.9,1.1,101436,27.5,28.8,0,4.14,42.9,0.3441453109527267,-0.029958743134342467,-1.5443936336566948,-0.01325364595206545,-0.017351133040761843,-0.499689557285331,-0.0027255163380596847,-121.53032155650271,-83.62297546745508,0.049572265033357564
7.619,0,0,0,-43.81921,172.65567,0.0,A,3,1,13,12.4,10.0,-0.006,1.003,-0.137,1.1,12.3,0.8,101439,28.0,28.8,0,4.14,39.1,0.0860352975608124,-0.03085714229049536,-1.5691511562094522,-0.01332302260891783,-0.01858483320534572,-0.49061134482474045,-4.954993603486623e-05,-120.90594087687901,-83.60185325873957,-0.42037865095373844
7.669000000000011,0,0,0,-43.81921,172.65567,0.0,A,3,1,13,12.4,10.0,-0.021,0.997,-0.138,-1.4,-2.4,-0.5,101439,28.0,28.8,0,4.14,41.0,0.0860352975608124,-0.03193291695064416,-1.5929721630825702,-0.013243857422592284,-0.02444615320059643,-0.46222893009976074,0.00321615738905596,-119.73119489658897,-83.5334949905581,-0.9712449771038882
7.718999999999994,0,0,0,-43.81921,172.65567,0.0,A,3,1,13,12.4,10.0,-0.08,0.994,-0.097,-1.8,-16.9,0.4,101439,27.7,28.9,0,4.15,35.9,0.0860352975608124,-0.03332656670714949,-1.6158963458638602,-0.013053757189299795,-0.0312998370596358,-0.45473838115215715,0.00438785194264619,-120.34611699402767,-83.54050957159896,-0.4607313505169605
7.7690000000000055,0,0,0,-43.81921,172.65567,0.0,A,3,1,13,12.4,10.0,-0.099,0.987,-0.089,-2.7,1.1,-1.0,101439,28.0,28.9,0,4.14,37.7,0.0860352975608124,-0.03506522455385454,-1.638988306431348,-0.012867913873756664,-0.03824647680855036,-0.46894004154714475,0.003045880679077343,-121.43773916894811,-83.58693393278156,-0.20011952302068525
7.818999999999988,0,0,0,-43.81921,172.65567,0.0,A,3,1,13,12.4,10.0,-0.03,0.998,-0.08,-2.1,8.2,-1.0,101439,28.0,28.9,0,4.11,76.8,0.0860352975608124,-0.036912362316162906,-1.6625584491837875,-0.012752451262298351,-0.03563903368380944,-0.4738656685507555,0.0015726237792567715,-122.38165350522804,-83.63403314755895,0.8174624836253551
7.869,0,0,0,-43.81921,172.65567,0.0,A,3,1,13,12.4,10.0,-0.016,0.997,-0.066,-0.4,-11.0,0.8,101442,28.5,28.8,0,4.14,48.4,-0.1720685348458202,-0.038246454345416896,-1.6859967133986404,-0.01269283475409939,-0.017724647486338087,-0.46366490004314787,0.0008120365487011224,-122.8359182655504,-83.65447479181825,1.6994954907465194
7.919000000000011,0,0,0,-43.81921,172.65567,0.0,A,3,1,13,12.4,10.0,-0.082,0.997,-0.05,-0.1,-0.5,-0.8,101442,28.0,28.8,0,4.14,46.6,-0.1720685348458202,-0.03869814704820025,-1.7092839022753668,-0.012675198370174822,-0.00034306062499196016,-0.4678226550256962,-0.00010658119171854481,-123.15783594849717,-83.65197792599537,1.4824299266086505
7.968999999999994,0,0,0,-43.81921,172.65567,0.0,A,3,1,13,12.4,10.0,-0.076,0.987,-0.096,0.1,5.9,0.4,101442,28.0,28.6,0,4.11,78.2,-0.1720685348458202,-0.03862729122457994,-1.7329903570773477,-0.012725133144081672,0.0031772935698053686,-0.48043553705386727,-0.0018908097645561565,-123.48006586777214,-83.5931374390897,1.7939346131972123
8.019000000000005,0,0,0,-43.81921,172.65567,0.0,A,3,1,13,12.4,10.0,-0.103,0.984,-0.133,0.0,3.1,1.0,101442,27.2,28.2,0,4.12,73.1,-0.1720685348458202,-0.03887626256776194,-1.7571735604978005,-0.012888057318524828,-0.013136147297083152,-0.4868925997640244,-0.004626157213168592,-122.98639924877807,-83.55886743789833,1.606437895797848
8.069999999999993,0,0,0,-43.81921,172.65567,0.0,A,3,1,13,12.4,10.0,-0.084,0.998,-0.082,0.3,-3.3,2.2,101442,26.7,28.2,0,4.14,40.5,-0.1720685348458202,-0.03990669193235581,-1.7822762074820138,-0.013130929531766904,-0.027272847392882105,-0.49752492902888584,-0.00489824330613085,-122.42579695066487,-83.54454208767969,1.214047298627911
8.13300000000001,0,0,0,-43.81921,172.65567,0.0,A,3,1,13,12.5,10.0,0.003,1.012,-0.092,2.0,9.0,3.5,101445,28.2,29.0,0,4.14,38.7,-0.430166186587999,-0.04127008429950258,-1.8133897240933612,-0.013278483924515309,-0.016009449976845284,-0.4902057570453737,0.00021397686967477778,-121.48330048355716,-83.55010890569186,0.07197361459586955
8.173000000000002,0,0,0,-43.81921,172.65567,0.0,A,3,1,13,12.5,10.0,0.031,0.998,-0.153,-1.3,15.4,0.4,101445,28.2,28.8,0,4.11,71.2,-0.430166186587999,-0.0417712643605438,-1.8323960426452641,-0.013203546267926683,-0.009049553075220571,-0.46011017054996484,0.0035329059597572912,-119.69334504111096,-83.51962046582433,-1.357191573165733
8.222000000000008,0,0,0,-43.81921,172.65567,0.0,A,3,1,13,12.5,10.0,-0.046,0.989,-0.145,0.3,-7.4,1.1,101445,27.5,28.8,0,4.14,37.7,-0.430166186587999,-0.04243852884405089,-1.854153802881836,-0.013017593475240263,-0.018185731965881392,-0.4279616758406115,0.004057003945809835,-119.0624754719559,-83.54450764746255,-1.2204908360187647
8.271999999999991,0,0,0,-43.81921,172.65567,0.0,A,3,1,13,12.5,10.0,-0.055,0.992,-0.083,-1.9,-2.1,-1.2,101445,27.5,28.7,0,4.14,41.0,-0.430166186587999,-0.04348968966418871,-1.8754129693466794,-0.012850578235498601,-0.023860700839645723,-0.4224049827534126,0.00262360564385893,-118.94520103535444,-83.51700816485683,-1.6984616008030646
8.322000000000003,0,0,0,-43.81921,172.65567,0.0,A,3,1,13,12.5,10.0,-0.073,0.999,-0.083,-0.8,-5.9,-0.2,101445,27.5,28.6,0,4.12,71.2,-0.430166186587999,-0.044573852097223955,-1.8967188275745266,-0.012722411156779218,-0.019505796481754302,-0.4298293463602796,0.0025030775049152704,-119.92006879631032,-83.52920479235027,-0.8105799816775713
8.371999999999986,0,0,0,-43.81921,172.65567,0.0,A,3,1,13,12.5,10.0,-0.122,0.99,-0.075,-0.8,-5.7,0.8,101439,27.5,28.6,0,4.14,41.9,0.0860352975608124,-0.04561011961967835,-1.9187553841173617,-0.012593595712521923,-0.021944904416435564,-0.45163291535342903,0.0026495402653783045,-120.46197392819722,-83.5176791086177,-0.549662568769024
8.421999999999997,0,0,0,-43.81921,172.65567,0.0,A,3,1,13,12.5,10.0,-0.069,0.994,-0.084,-0.2,8.5,1.0,101439,27.5,28.8,0,4.14,36.4,0.0860352975608124,-0.04676572391481431,-1.9418498116403895,-0.012488541600807467,-0.02427926738899237,-0.47214418556747434,0.0015526242031989788,-120.61388580947997,-83.53138088911176,-0.6711787908333225
8.472000000000008,0,0,0,-43.81921,172.65567,0.0,A,3,1,13,12.5,10.0,-0.066,0.993,-0.085,0.6,12.4,1.3,101439,28.0,28.9,0,4.15,38.2,0.0860352975608124,-0.047912982474378855,-1.9656513756854832,-0.012433846448315503,-0.0216110749935791,-0.47991837623606126,0.0006351818964791077,-119.84578790171838,-83.5241230901465,-1.0040510644830531
8.521999999999991,0,0,0,-43.81921,172.65567,0.0,A,3,1,13,12.5,10.0,-0.027,0.995,-0.143,-1.2,-3.7,0.2,101439,27.7,28.9,0,4.12,66.1,0.0860352975608124,-0.04910161125213233,-1.989461047847213,-0.01239737994506316,-0.025934076116576315,-0.47246851023345227,0.0008234782336151059,-118.59838510999424,-83.48861974987271,-1.6230779130649988
8.572000000000003,0,0,0,-43.81921,172.65567,0.0,A,3,1,13,12.5,10.0,-0.042,0.991,-0.127,-2.3,-13.4,-0.5,101439,27.7,28.2,0,4.15,42.4,0.0860352975608124,-0.05065183152212259,-2.0126514916399794,-0.012346439615184071,-0.036074734683019916,-0.45514924147698954,0.0012141349615479647,-118.96232371074049,-83.50498062582412,-1.4305533835829007
8.621999999999986,0,0,0,-43.81921,172.65567,0.0,A,3,1,13,12.5,10.0,-0.056,0.999,-0.077,-1.6,-4.5,-0.7,101435,27.2,28.9,0,4.14,40.1,0.4301833556922331,-0.05245526380891833,-2.035313825299593,-0.01228188352533195,-0.03606255678883421,-0.45134410490786486,0.001368108632537772,-120.3223132916027,-83.55150393879272,-0.7237126548592789
8.671999999999997,0,0,0,-43.81921,172.65567,0.0,A,3,1,13,12.5,10.0,-0.074,1.0,-0.066,-2.1,0.7,-1.3,101435,27.7,28.9,0,4.11,71.2,0.4301833556922331,-0.05403858971198819,-2.0581193346784903,-0.012180142904088455,-0.027270479333945732,-0.4608762702478115,0.002701516217201102,-121.16586637294967,-83.56129312367975,-0.08880168516204535
8.722000000000008,0,0,0,-43.81921,172.65567,0.0,A,3,1,13,12.5,10.0,-0.094,0.99,-0.081,-2.3,-9.0,-0.8,101435,27.7,28.5,0,4.14,38.2,0.4301833556922331,-0.05533193307489243,-2.081567026895812,-0.012050161670314231,-0.024463255182212366,-0.47703141844483965,0.00249773313376665,-122.09478971911656,-83.57553257442618,0.8936517636530891
8.771999999999991,0,0,0,-43.81921,172.65567,0.0,A,3,1,13,12.5,10.0,-0.082,0.995,-0.02,0.4,-6.0,0.2,101435,27.2,28.7,0,4.14,40.1,0.4301833556922331,-0.05628190675035303,-2.1059865031516676,-0.011983218520476655,-0.013535691836224387,-0.4997476317897176,0.00017999285973728475,-123.37556977872995,-83.60957842099036,1.7420783834463092
8.822000000000003,0,0,0,-43.81921,172.65567,0.0,A,3,1,13,12.5,10.0,-0.055,0.99,-0.084,-0.6,13.3,0.3,101435,27.7,28.7,0,4.15,45.7,0.4301833556922331,-0.056576556386325826,-2.1313121685848406,-0.012044639664761166,0.0017497063973150838,-0.5132789855369676,-0.002636838631117144,-123.47639939302141,-83.55735161183485,1.5540774468479663
8.871999999999986,0,0,0,-43.81921,172.65567,0.0,A,3,1,13,12.5,10.0,-0.087,0.993,-0.109,0.3,-1.6,1.6,101440,27.5,28.6,0,4.13,50.3,0.0,-0.05657869084269763,-2.1570618974097178,-0.012206422142388162,-0.0018350846521871514,-0.5167101674584614,-0.003834460473964909,-122.82026879431169,-83.54962059164238,1.575428996282646
8.921999999999997,0,0,0,-43.81921,172.65567,0.0,A,3,1,13,12.5,10.0,-0.064,0.999,-0.089,1.2,-5.9,1.8,101440,27.5,28.9,0,4.14,47.5,0.0,-0.05680605026342111,-2.183028609745452,-0.012367079706907091,-0.00725929217674989,-0.5219583259706809,-0.0025918421067908396,-122.21168930292785,-83.53891015871659,0.8948814009095271
8.972000000000008,0,0,0,-43.81921,172.65567,0.0,A,3,1,13,12.5,10.0,-0.084,0.986,-0.061,1.8,18.5,0.8,101440,27.7,28.9,0,4.14,48.9,0.0,-0.057045471334297576,-2.209410649051678,-0.012537822762493702,-0.0023175506583067527,-0.533323246278113,-0.004237880116672048,-121.53827102113318,-83.49440961284289,-0.06734316400493863
9.021999999999991,0,0,0,-43.81921,172.65567,0.0,A,3,1,13,12.5,10.0,-0.088,0.994,-0.15,-0.4,4.6,1.0,101440,27.5,28.6,0,4.11,74.0,0.0,-0.05741937214307894,-2.2363245434809182,-0.012775933309447285,-0.012638481692952843,-0.5432325308918656,-0.00528654176147453,-119.90404558269111,-83.39639814054297,-0.7688057953984339
9.073000000000008,0,0,0,-43.81921,172.65567,0.0,A,3,1,13,12.5,10.0,-0.064,0.992,-0.112,-1.0,-8.1,0.8,101440,27.5,28.4,0,4.13,71.2,0.0,-0.05852654946164878,-2.264037644044841,-0.013010757497485509,-0.030780236682321306,-0.5435557265165379,-0.003922249926296028,-119.37047943367524,-83.39746534562823,-1.0570901460817346
