timestamp,pdop,hdop,vdop,lati,longi,gps_speed,gps_mode,gps_fix_type,gps_fix_quality,gps_sats_tracked,gps_alt,gps_height,accel_x_g,accel_y_g,accel_z_g,gyro_x_dps,gyro_y_dps,gyro_z_dps,pressure_pa,tc_temp_C,cjc_temp_C,oc_sc_flags,batt_voltage_V,batt_current_mA,baro_calculated_altitude_m,pos_x,pos_y,pos_z,vel_x,vel_y,vel_z,roll_deg,pitch_deg,yaw_deg
0.0,0,0,0,-43.81921,172.65567,0.0,A,3,1,13,12.4,10.0,-0.107,0.994,0.001,1.1,6.5,1.2,101427,30.2,28.4,0,4.15,44.3,1.1185124403604751,0.00031554643863955506,0.00015099060644179795,-7.744978041888308e-06,0.012621857545579332,0.006039624257670544,-0.0003097991216754619,-121.62386569360321,-83.4751456619429,-0.7429159399149597
0.04999999999998295,0,0,0,-43.81921,172.65567,0.0,A,3,1,13,12.4,10.0,-0.114,0.985,-0.085,1.6,5.7,2.0,101427,30.2,28.6,0,4.13,49.8,1.1185124403604751,0.001179990755787819,-0.00044677257647840365,-0.0001139575759532439,0.021955915140363023,-0.029950151574486765,-0.003938704794780211,-120.59187247424124,-83.41791959363734,-1.442323787283536
0.09999999999999432,0,0,0,-43.81921,172.65567,0.0,A,3,1,13,12.4,10.0,-0.036,0.992,-0.16,1.5,18.8,1.8,101427,39.7,28.6,0,4.14,45.2,1.1185124403604751,0.0019216512220945516,-0.001980845479472683,-0.0003422393151267249,0.007710503511899542,-0.031412764545270457,-0.005192564772156955,-119.21003213411907,-83.35729107435934,-2.5342719932667697
0.15099999999998204,0,0,0,-43.81921,172.65567,0.0,A,3,1,13,12.4,10.0,-0.02,0.987,-0.198,-1.1,-6.5,0.8,101431,44.7,28.8,0,4.14,48.9,0.7743424030324028,0.0016560800919109742,-0.002783005494053337,-0.0005865587066925358,-0.018125057636748224,-4.4490928488266634e-05,-0.004388587838269308,-117.25628156339998,-83.29141255374613,-3.5235303892345833
0.21399999999999864,0,0,0,-43.81921,172.65567,0.0,A,3,1,13,12.4,10.0,-0.011,9.833,-0.152,-16.5,69.0,1.0,101431,44.7,28.7,0,4.14,39.1,0.7743424030324028,0.009680460050595592,-0.0020625618795424897,0.08459421469061354,0.27286727854730386,0.02291571678596946,2.708540124259972,-117.56915956618863,-83.32441183914824,-3.6053946389221796
0.2539999999999907,0,0,0,-43.81921,172.65567,0.0,A,3,1,13,12.4,10.0,0.058,10.635,-0.267,-7.1,123.5,-8.8,101431,57.2,28.7,0,4.15,41.0,0.7743424030324028,0.028167837368966497,-0.0005494440169688225,0.2650246513117922,0.6515015873714254,0.052740176342728956,6.312981706800755,-117.21239138842951,-83.89605398214253,-1.1773616667052091
0.30299999999999727,0,0,0,-43.81921,172.65567,0.0,A,3,1,13,12.4,10.0,0.184,11.534,-0.027,1.4,141.0,3.1,101431,104.2,28.7,0,4.11,67.5,0.7743424030324028,0.07290757536388262,0.0045023312792658796,0.692437911507196,1.1746101675228646,0.15345473370763932,11.132457484846032,-116.27384669598949,-83.97254890496,3.9763662835166835
0.3529999999999802,0,0,0,-43.81921,172.65567,0.0,A,3,1,13,12.4,10.0,-0.54,11.946,-0.575,10.1,152.2,-0.2,101431,104.2,28.7,0,4.14,41.9,0.7743424030324028,0.14281206922290146,0.011858677920874597,1.380324526956287,1.6215695868388433,0.14079913195680968,16.383007133126988,-107.6708698315602,-83.92503655699369,2.42691754881342
0.4029999999999916,0,0,0,-43.81921,172.65567,0.0,A,3,1,13,12.4,10.0,0.262,11.64,-0.746,5.7,95.0,-2.6,101425,151.0,28.7,0,4.14,41.9,1.2906015805207809,0.23130171004706773,0.019385247690009846,2.3318319549009883,1.9180160461270035,0.1602636588085318,21.67728998465242,-99.19326980600792,-83.39270288909928,1.5662732447245156
0.45299999999997453,0,0,0,-43.81921,172.65567,0.0,A,3,1,13,12.4,10.0,-0.148,11.486,-0.338,3.4,67.0,-2.5,101425,192.0,28.7,0,4.11,70.3,1.2906015805207809,0.3375223725207736,0.02939103608558312,3.54492680297401,2.3308104528226807,0.23996787701453565,26.846503938285007,-95.35217657545478,-83.05598510385211,2.4938243574666386
0.5029999999999859,0,0,0,-43.81921,172.65567,0.0,A,3,1,13,12.4,10.0,0.066,11.264,-0.488,9.6,83.0,-3.1,101425,192.0,28.8,0,4.16,38.7,1.2906015805207809,0.46608344283137537,0.04187182207889767,5.013993101493397,2.81163235960022,0.25926356271793294,31.916148002477108,-93.04725824371319,-82.84061291960978,3.5591224414912253
0.5529999999999973,0,0,0,-43.81921,172.65567,0.0,A,3,1,13,12.4,10.0,-0.02,11.029,-0.409,18.2,80.1,-3.2,101425,229.7,28.8,0,4.14,44.7,1.2906015805207809,0.6188159410601406,0.056181892896152406,6.7337261557769486,3.297667569549,0.3131392699721264,36.87317416884931,-90.12794820246997,-82.32077514975315,4.812478744639826
0.6029999999999802,0,0,0,-43.81921,172.65567,0.0,A,3,1,13,12.4,10.0,0.033,10.848,-0.572,22.4,66.1,-2.4,101425,262.7,29.1,0,4.14,36.4,1.2906015805207809,0.7966841731209389,0.07302645833254212,8.698704697130564,3.817061712885355,0.36064334748369226,41.725967485322094,-87.5115995291398,-81.37959318577522,6.227622861718553
0.6529999999999916,0,0,0,-43.81921,172.65567,0.0,A,3,1,13,12.4,10.0,-0.058,10.852,-0.345,23.9,55.1,-1.0,101355,262.7,28.9,0,4.15,38.2,7.315453295806254,1.0032060206353806,0.0925105970291312,10.904898461207866,4.443812187690436,0.4187222003796935,46.521783077749916,-85.50029187598001,-80.23519488239192,7.550507781379186
0.7029999999999745,0,0,0,-43.81921,172.65567,0.0,A,3,1,13,12.4,10.0,0.016,10.784,-0.503,27.6,43.1,-3.9,101355,295.7,28.9,0,4.11,65.2,7.315453295806254,1.244116411659921,0.11533808019931094,13.350090856005346,5.1926034532944705,0.49437712642780723,51.285912714182686,-83.74983581296094,-79.01710835250653,8.584151399099037
0.7529999999999859,0,0,0,-43.81921,172.65567,0.0,A,3,1,13,12.4,10.0,-0.09,10.812,-0.486,29.0,29.1,-5.7,101355,331.2,28.7,0,4.14,41.5,7.315453295806254,1.5245827344856804,0.14243177355308914,16.032938229271103,6.026049459733352,0.5893706077230746,56.02798221642324,-83.38963839272547,-77.63489613667532,10.429250432395419
0.8029999999999973,0,0,0,-43.81921,172.65567,0.0,A,3,1,13,12.4,10.0,-0.074,10.744,-0.155,30.4,19.1,-16.1,101355,331.2,29.0,0,4.11,66.6,7.315453295806254,1.8518322590692413,0.1757557495169089,18.951579754839006,7.06393152360611,0.7435884308294125,60.71767880626636,-83.93703005866382,-76.19233966334298,12.49742294446201
0.8529999999999802,0,0,0,-43.81921,172.65567,0.0,A,3,1,13,12.4,10.0,0.109,10.631,-0.139,22.1,11.2,-18.5,101355,364.2,29.0,0,4.14,46.6,7.315453295806254,2.2351367543228937,0.22077956532258514,22.102442040116717,8.268248286545223,1.057364201398251,65.31681260488506,-86.63583568024862,-74.70948201579843,16.284510364823763
0.9029999999999916,0,0,0,-43.81921,172.65567,0.0,A,3,1,13,12.4,10.0,0.243,10.792,-0.099,6.5,0.0,-11.0,101218,394.7,28.9,0,4.14,45.2,19.11670544923861,2.6805412717434063,0.28636439919760615,25.482728040853743,9.54793241027122,1.566029153601994,69.89462742456523,-89.53079349335584,-73.60100087484263,19.888335262034786
0.9529999999999745,0,0,0,-43.81921,172.65567,0.0,A,3,1,13,12.4,10.0,0.3,10.626,-0.006,-15.3,-8.8,4.9,101218,394.7,28.7,0,4.09,78.2,19.11670544923861,3.191187347364438,0.3809225767177913,29.091175578531445,10.877910614577,2.216297947206702,74.44327408259208,-91.4269520000537,-73.23594901511429,21.87942388929236
1.002999999999986,0,0,0,-43.81921,172.65567,0.0,A,3,1,13,12.4,10.0,0.204,10.539,-0.185,-32.6,-17.7,14.9,101218,427.0,28.7,0,4.14,43.3,19.11670544923861,3.7670178221709816,0.5076845050117175,32.925815547661784,12.155308377679507,2.854179184549194,78.94232468258654,-91.15025915832535,-73.97057321823563,21.145027258772856
1.0529999999999973,0,0,0,-43.81921,172.65567,0.0,A,3,1,13,12.4,10.0,0.011,10.482,-0.704,-29.3,-21.8,14.2,101218,457.0,28.8,0,4.14,49.4,19.11670544923861,4.4011823718428635,0.6613892534470908,36.9863443612708,13.211273609190004,3.2940107528643394,83.47882786173726,-89.39209050441976,-75.56917089582413,18.41847539031237
1.1029999999999802,0,0,0,-43.81921,172.65567,0.0,A,3,1,13,12.4,10.0,-0.076,10.516,-0.874,-4.9,-30.6,8.4,101218,457.0,28.7,0,4.15,42.9,19.11670544923861,5.08214154835422,0.8316431603577132,41.27530677597249,14.027093451273526,3.516145523562884,88.0796687263886,-87.49131032151547,-76.98014948350453,15.35249591828523
1.1659999999999968,0,0,0,-43.81921,172.655654,10.585,A,3,1,13,12.3,10.0,0.011,10.457,-0.515,25.1,-35.7,-4.6,101008,483.0,28.4,0,4.14,41.9,37.23134867966948,5.9976159450109385,1.0598503736872515,47.00678847804293,15.035585807662265,3.7285279154681685,93.87213133929173,-87.15833891105466,-77.22074815304103,13.04890863556091
1.2109999999999843,0,0,0,-43.81921,172.655654,10.585,A,3,1,13,12.3,10.0,0.214,10.352,-0.179,26.5,-38.8,-13.9,101008,508.2,28.4,0,4.15,36.4,37.23134867966948,6.6938916897267084,1.233437246379197,51.32238499999187,15.910002846380534,3.9864442041759935,97.9321585251591,-89.83424190912675,-76.0658523195582,14.15916967889994
1.2579999999999814,0,0,0,-43.81921,172.655654,10.585,A,3,1,13,12.3,10.0,0.09,10.347,-0.08,15.7,-39.0,-13.0,101008,508.2,28.9,0,4.11,71.7,37.23134867966948,7.467143565040381,1.429599299289149,56.02317293689542,16.994332273352274,4.360877196248031,102.10137070479192,-94.06549489744778,-74.76481419821272,16.658509532158455
1.3079999999999927,0,0,0,-43.81921,172.655654,10.585,A,3,1,13,12.3,10.0,0.268,10.289,0.066,-5.4,-39.4,-4.2,101008,531.2,28.7,0,4.12,69.4,37.23134867966948,8.348884335884499,1.660183135241599,61.23768532925197,18.275298560404426,4.8624762418478715,106.47912498942242,-98.07248574266231,-73.87809938149525,18.80747725500114
1.3579999999999757,0,0,0,-43.81921,172.655654,10.585,A,3,1,13,12.3,10.0,0.289,10.095,-0.196,-11.9,-43.2,4.4,101008,555.2,28.7,0,4.14,39.1,37.23134867966948,9.293842509373384,1.9179554341455263,66.66950704038565,19.5230283791639,5.4484157143127385,110.79374345599928,-100.95937755959136,-74.0714036982723,19.774077811818547
1.407999999999987,0,0,0,-43.81921,172.655654,10.585,A,3,1,13,12.3,10.0,0.088,9.982,-0.449,-5.1,-45.2,5.8,100771,555.2,29.2,0,4.14,38.7,57.71168306867147,10.29709170877343,2.2033426719569937,72.31633184983676,20.60693959682882,5.967073798143372,115.07924892199377,-102.82437136020641,-74.6600823959,19.48034363318586
1.4579999999999984,0,0,0,-43.81921,172.655654,10.585,A,3,1,13,12.3,10.0,0.082,9.932,-0.426,4.8,-47.9,-2.3,100771,580.5,28.7,0,4.11,70.8,57.71168306867147,11.352408953041405,2.5127361563260076,78.17711086932624,21.605750173880594,6.408665576614372,119.35191185753258,-104.30034487853065,-74.93673613861412,18.680480726601214
1.5079999999999814,0,0,0,-43.81921,172.655654,10.585,A,3,1,13,12.3,10.0,-0.042,9.805,-0.194,8.8,-50.6,-7.0,100771,599.7,28.7,0,4.14,40.1,57.71168306867147,12.459044767429747,2.843437161494992,84.25011295597146,22.659682401668174,6.819374630149511,123.56817160835878,-106.8935163511462,-74.63503022129677,18.898439986363897
1.5579999999999927,0,0,0,-43.81921,172.655654,10.585,A,3,1,13,12.3,10.0,0.338,9.693,-0.029,0.2,-51.9,-5.6,100771,599.7,28.8,0,4.14,41.9,57.71168306867147,13.621133656756431,3.1968269654549597,90.53149722793806,23.82387317138863,7.316217528245994,127.6871992702479,-110.1293218381578,-74.06655579251796,19.64400499129762
1.6079999999999757,0,0,0,-43.81921,172.655654,10.585,A,3,1,13,12.3,10.0,0.346,9.657,-0.051,-14.6,-54.6,8.9,100771,615.2,29.1,0,4.15,40.5,57.71168306867147,14.842637987194426,3.57808243295762,97.01727839344072,25.036300046147833,7.934001171865619,131.74404734994692,-113.62750700086559,-73.9123386246836,20.596274476517042
1.657999999999987,0,0,0,-43.81921,172.655654,10.585,A,3,1,13,12.3,10.0,0.159,9.325,-0.454,-5.9,-53.7,12.4,100467,630.5,29.1,0,4.12,72.6,84.03899406759822,16.121112091876814,3.989166211631719,103.70460489480753,26.102664141136085,8.509349975094585,135.74901270466492,-116.01425999903304,-74.72074580378754,20.252340554372665
1.7079999999999984,0,0,0,-43.81921,172.655654,10.585,A,3,1,13,12.3,10.0,-0.109,7.932,-0.146,4.6,-54.9,-2.6,100467,630.5,28.4,0,4.14,42.4,84.03899406759822,17.448574134842428,4.424567022617456,110.58275339677495,26.995817577476387,8.906682464330956,139.3769273739694,-117.12534478788882,-75.220905400311,18.63525944220621
1.7579999999999814,0,0,0,-43.81921,172.655654,10.585,A,3,1,13,12.3,10.0,0.304,5.887,-0.17,1.8,-59.8,2.9,100467,644.5,28.6,0,4.11,69.4,84.03899406759822,18.81740173381924,4.878380946753654,117.62144974082804,27.75728638161474,9.245874501123167,142.17092638825045,-119.88187975003247,-74.915682972282,18.659770681949194
1.8079999999999927,0,0,0,-43.81921,172.655654,10.585,A,3,1,13,12.3,10.0,-0.091,3.794,-0.061,0.4,-60.8,3.2,100467,652.5,28.6,0,4.12,67.5,84.03899406759822,20.21879263763458,5.347142131560796,124.77516545452491,28.298349770986118,9.504572891158233,143.9777021595592,-122.22762958978203,-74.87225233426432,18.005050124273563
1.8579999999999757,0,0,0,-43.81921,172.655654,10.585,A,3,1,13,12.3,10.0,0.264,1.924,0.136,-16.7,-59.9,-4.1,100467,652.5,28.4,0,4.14,46.1,84.03899406759822,21.64315411435991,5.826005534958125,131.9953543500056,28.67610929804657,9.649963244741487,144.8298536597671,-124.71406022750072,-74.90271092076209,17.444239277147137
1.907999999999987,0,0,0,-43.81921,172.655654,10.585,A,3,1,13,12.3,10.0,-0.023,0.044,-0.449,-5.8,-62.9,3.0,100101,656.2,28.7,0,4.14,48.4,115.82140896297976,23.07860991966225,6.311568702411062,139.23635615173737,28.742122914034,9.772563453371582,144.8102184094372,-130.2090080389157,-75.40000737287751,20.043021288308147
1.9579999999999984,0,0,0,-43.81921,172.655654,10.585,A,3,1,13,12.3,10.0,0.07,-1.052,-0.226,12.3,-67.2,14.5,100101,652.7,28.7,0,4.1,80.5,115.82140896297976,24.510634988112415,6.8014547942907155,146.45933657948632,28.538879823959622,9.822880221810115,144.1089987004556,-133.63022238952206,-75.67557459393551,20.340819929714137
2.0079999999999814,0,0,0,-43.81921,172.655654,10.585,A,3,1,13,12.3,10.0,-0.045,-1.241,-0.035,11.0,-80.2,10.1,100101,652.7,28.6,0,4.14,49.4,115.82140896297976,25.932890700247054,7.292313117994676,153.63915748990934,28.351348661445297,9.811452726355009,143.08383771656298,-133.22419928272916,-75.68714671278522,16.466610413429333
2.0579999999999927,0,0,0,-43.81921,172.655654,10.585,A,3,1,13,12.3,10.0,-0.235,-1.277,0.454,-2.5,-69.8,0.4,100101,642.7,28.7,0,4.13,49.8,115.82140896297976,27.348074413790386,7.7790826424789845,160.76596652461222,28.255999880275123,9.659328253012886,141.98852367148794,-134.2758746517666,-75.59892026940989,13.425449401644336
2.1219999999999857,0,0,0,-43.81921,172.655578,12.944999,A,3,1,13,12.0,10.0,-0.011,-1.022,-0.044,-12.7,-74.5,-6.6,99677,630.5,28.7,0,4.14,41.5,152.75824210530575,29.153128557493353,8.391725815030632,169.81045183940785,28.151942110448857,9.485770889228242,140.65164241590676,-139.05801371818518,-75.67661099342156,13.766607726275288
2.164999999999992,0,0,0,-43.81921,172.655578,12.944999,A,3,1,13,12.0,10.0,0.042,-1.521,-0.024,-7.9,-69.8,0.4,99677,618.5,28.8,0,4.11,74.0,152.75824210530575,30.36076220005787,8.799159956728307,175.8382435983028,28.017064520450557,9.464654306009626,139.7107649745147,-144.57703379530258,-75.75804158544898,16.16671749126985
2.212999999999994,0,0,0,-43.81921,172.655578,12.944999,A,3,1,13,12.0,10.0,0.064,-1.308,-0.083,-5.4,-68.3,4.0,99677,618.5,28.8,0,4.15,41.9,152.75824210530575,31.701763542076005,9.253189031404794,182.51751107728424,27.85799139696962,9.453223805510001,138.59204664970125,-149.06493239643183,-75.94605136705295,17.35181767177382
2.262999999999977,0,0,0,-43.81921,172.655578,12.944999,A,3,1,13,12.0,10.0,0.146,-1.337,0.173,-5.2,-62.1,13.2,99677,606.5,28.8,0,4.14,40.5,152.75824210530575,33.092171164055515,9.725169901920296,189.41878321071943,27.758313482229724,9.42601101511649,137.45883868780086,-152.94661190874646,-76.21618131340308,17.84512828894964
2.312999999999988,0,0,0,-43.81921,172.655578,12.944999,A,3,1,13,12.0,10.0,-0.551,-1.421,-0.14,-9.8,-58.7,9.4,99677,593.0,28.8,0,4.12,72.6,152.75824210530575,34.47468581993267,10.193560860903304,196.26348596748204,27.542272752843896,9.309627344199537,136.32927158264116,-155.7298989462865,-76.88921145572503,17.526813021591675
2.3629999999999995,0,0,0,-43.81921,172.655578,12.944999,A,3,1,13,12.0,10.0,-0.218,-1.211,-0.107,0.9,-62.2,-8.2,99262,593.0,28.7,0,4.14,42.4,189.0344477976825,35.84396666742556,10.656029323529534,203.05304905195987,27.228961146859547,9.189111160845462,135.25325179641018,-159.7554964920909,-77.47676651024751,18.657696827573027
2.4129999999999825,0,0,0,-43.81921,172.655578,12.944999,A,3,1,13,12.0,10.0,-0.073,-1.187,-0.021,1.7,-68.2,-4.8,99262,580.7,28.7,0,4.17,37.7,189.0344477976825,37.20050017941585,11.113968108928793,209.7895296318109,27.032379332770468,9.128440255131112,134.2059713977229,-163.123979042618,-77.042485733762,18.93514848461541
2.462999999999994,0,0,0,-43.81921,172.655578,12.944999,A,3,1,13,12.0,10.0,0.063,-1.018,-0.001,6.6,-65.5,-0.7,99262,565.5,28.7,0,4.12,72.6,189.0344477976825,38.54910746125067,11.569455666497303,216.47441179113443,26.911911940610203,9.091062047605133,133.18931497515737,-166.31922172463118,-76.75885472273094,18.727126828885137
2.512999999999977,0,0,0,-43.81921,172.655578,12.944999,A,3,1,13,12.0,10.0,-0.122,-1.129,0.297,7.7,-57.8,3.0,99262,565.5,28.7,0,4.14,42.4,189.0344477976825,39.89237359144579,12.021331537487253,223.10879739810397,26.818733267212796,8.983972791998985,132.18610930371472,-168.12902854042107,-76.62326495885075,17.23398142471975
2.562999999999988,0,0,0,-43.81921,172.655578,12.944999,A,3,1,13,12.0,10.0,-0.156,-1.14,0.145,-9.1,-58.0,8.9,99262,550.7,28.7,0,4.14,39.6,189.0344477976825,41.230020981816615,12.466462715761455,229.6925610764615,26.68716234760797,8.821274338965079,131.16443783052628,-169.16470685762744,-76.66679947097647,15.340608771090753
2.6129999999999995,0,0,0,-43.81921,172.655578,12.944999,A,3,1,13,12.0,10.0,-0.262,-1.116,0.232,-20.9,-62.1,-5.2,98891,536.5,28.9,0,4.15,40.1,221.5686181366345,42.56004473823546,12.903511358684943,236.22554126705305,26.513787909133782,8.66067137797042,130.1547697930764,-173.56333410347713,-77.14879623202772,16.891663891859714
2.6629999999999825,0,0,0,-43.81921,172.655578,12.944999,A,3,1,13,12.0,10.0,0.091,-1.382,-0.059,-23.0,-75.2,-1.2,98891,536.5,28.4,0,4.11,74.0,221.5686181366345,43.88199830922803,13.333996317351996,242.70628057046176,26.364354930586966,8.55872696871755,129.0748023433599,178.90602488151308,-76.91478949605869,21.44539098311187
2.712999999999994,0,0,0,-43.81921,172.655578,12.944999,A,3,1,13,12.0,10.0,-0.011,-1.187,-0.34,-4.9,-66.6,4.2,98891,520.7,28.4,0,4.16,42.9,221.5686181366345,45.196644553844,13.762990542531067,249.13222571720553,26.22149485403987,8.60104203844141,127.96300352633196,170.44887565022785,-76.73038197898853,26.28177272784589
2.762999999999977,0,0,0,-43.81921,172.655578,12.944999,A,3,1,13,12.0,10.0,-0.104,-1.117,-0.173,6.0,-67.7,4.9,98891,506.7,28.8,0,4.15,43.3,221.5686181366345,46.50331011456185,14.194446951268564,255.50437461267444,26.045127574691936,8.657214311064289,126.92295229251192,166.09175378609177,-76.87256126257418,27.349238035199086
2.812999999999988,0,0,0,-43.81921,172.655578,12.944999,A,3,1,13,12.0,10.0,-0.408,-1.096,0.055,13.0,-65.0,-5.4,98891,506.7,28.9,0,4.13,64.3,221.5686181366345,47.79963971302026,14.626080501221855,261.82567014832466,25.80805636363295,8.608127687063476,125.92886913343992,163.87226939280666,-77.17553641725077,26.16564605884726
2.8629999999999995,0,0,0,-43.81921,172.655578,12.944999,A,3,1,13,12.0,10.0,-0.139,-1.083,0.057,-0.9,-57.0,-13.0,98522,491.2,28.9,0,4.13,52.6,254.02558484231767,49.084203764319156,15.05407301374807,268.09758085326007,25.574505688310975,8.51157281398124,124.94755906391855,163.86979070067665,-77.08611226130097,22.84691760310821
2.9129999999999825,0,0,0,-43.81921,172.655578,12.944999,A,3,1,13,12.0,10.0,0.076,-1.074,0.01,-6.5,-55.4,-1.7,98522,478.7,28.7,0,4.13,48.0,254.02558484231767,50.359803492233624,15.478022748241276,274.31992350453345,25.449483428285188,8.446416565752799,123.9461469871017,161.83358620778523,-76.44190139038517,22.023381170103217
2.962999999999994,0,0,0,-43.81921,172.655578,12.944999,A,3,1,13,12.0,10.0,0.326,-1.087,0.121,-3.5,-53.9,6.3,98522,478.7,28.7,0,4.14,48.4,254.02558484231767,51.631815445069044,15.898388700436245,280.4916145903141,25.430994685120115,8.368221522042088,122.92149644406719,158.1051890634811,-76.24286715778317,23.022165558974336
3.012999999999977,0,0,0,-43.81921,172.655578,12.944999,A,3,1,13,12.0,10.0,0.025,-0.993,-0.019,-6.0,-54.3,13.9,98522,465.7,28.7,0,4.14,46.6,254.02558484231767,52.9027255517827,16.314986676180876,286.61261059172614,25.405409583443376,8.295697507748796,121.91834361249705,154.40859781148217,-76.45549607737757,24.06536984384351
3.062999999999988,0,0,0,-43.81921,172.655578,12.944999,A,3,1,13,12.0,10.0,-0.021,-0.957,-0.062,-4.8,-60.7,11.3,98522,453.2,28.3,0,4.13,49.4,254.02558484231767,54.170553318309274,16.72909403445323,292.6845630761367,25.30770107760796,8.268596823141522,120.95975576387224,149.37672068594287,-76.92513444616586,26.45861121535606
3.125,0,0,0,-43.81921,172.655487,12.472999,A,3,1,12,11.8,10.0,-0.329,-0.973,0.242,-3.0,-54.1,4.9,98140,453.2,28.8,0,4.15,41.9,287.72988434834025,55.73258649958053,17.238662154961514,300.1482819393927,25.080466060164916,8.169084483574169,119.80536885724189,143.06300631122545,-77.34444563751241,29.089965100373863
3.1699999999999875,0,0,0,-43.81921,172.655487,12.472999,A,3,1,12,11.8,10.0,-0.239,-0.971,-0.081,-3.7,-55.3,-3.1,98140,442.0,28.5,0,4.11,74.5,287.72988434834025,56.856551598102904,17.60490060634636,305.5207499031658,24.87353831862134,8.108180022423518,118.9709850882943,139.71686482079576,-77.43736600456911,30.035342282236563
3.2169999999999845,0,0,0,-43.81921,172.655487,12.472999,A,3,1,12,11.8,10.0,-0.072,-1.096,-0.224,-3.2,-56.5,-4.6,98140,430.0,28.5,0,4.15,41.9,287.72988434834025,58.02217567149586,17.986686356583583,311.0906557838261,24.72748608108186,8.138022115331697,118.04628642917967,137.14955095209672,-77.22004482788489,30.014470606996596
3.266999999999996,0,0,0,-43.81921,172.655487,12.472999,A,3,1,12,11.8,10.0,0.023,-0.865,-0.01,1.2,-63.5,-1.6,98140,430.0,28.5,0,4.15,42.4,287.72988434834025,59.25623154624827,18.393697670652937,316.96881569304014,24.634748909003445,8.142430447438736,117.08010993932818,134.70781899102377,-76.9527947776418,29.63372343944197
3.316999999999979,0,0,0,-43.81921,172.655487,12.472999,A,3,1,12,11.8,10.0,-0.036,-0.925,-0.021,2.5,-57.3,1.0,98140,418.7,28.2,0,4.12,69.8,287.72988434834025,60.485790147304236,18.799816436320327,322.7998416972795,24.547595133251953,8.10232017926244,116.16093023032384,132.14462501769654,-76.95238008883005,29.018180207791694
3.3669999999999902,0,0,0,-43.81921,172.655487,12.472999,A,3,1,12,11.8,10.0,-0.043,-0.901,0.092,-1.2,-56.9,0.6,97796,406.2,28.2,0,4.14,45.7,318.17242654023653,61.71035965456498,19.20349176206777,328.58485752405954,24.435185157166657,8.044692850631662,115.23970284082588,129.65257819957083,-77.09232661136595,28.647923421239657
3.416999999999973,0,0,0,-43.81921,172.655487,12.472999,A,3,1,12,11.8,10.0,-0.019,-0.902,0.103,-3.8,-56.0,0.7,97796,406.2,28.9,0,4.14,41.5,318.17242654023653,62.9291547849116,19.60359933413516,334.32406343954153,24.316620056714655,7.95961003206941,114.3285337785318,126.72288388952776,-77.07829185698483,28.74728634455001
3.4669999999999845,0,0,0,-43.81921,172.655487,12.472999,A,3,1,12,11.8,10.0,-0.051,-0.917,0.028,-3.7,-55.8,2.9,97796,396.7,28.7,0,4.15,42.9,318.17242654023653,64.14208769986251,19.999839636230526,340.01755492754177,24.20069654131099,7.890002051741589,113.41112574142588,123.500032631551,-76.95962615842002,29.19369904579795
3.516999999999996,0,0,0,-43.81921,172.655487,12.472999,A,3,1,12,11.8,10.0,-0.157,-0.901,0.029,-3.0,-55.0,2.4,97796,386.5,28.7,0,4.14,41.9,318.17242654023653,65.34867185845192,20.393423434821127,345.665200975434,24.062669802254455,7.85334989187885,112.4947161742118,119.92967156830761,-76.89730047424241,30.007293316048976
3.566999999999979,0,0,0,-43.81921,172.655487,12.472999,A,3,1,12,11.8,10.0,-0.137,-0.882,0.062,-3.6,-53.8,1.6,97796,386.5,28.7,0,4.14,43.3,318.17242654023653,66.54785672309895,20.78531613784339,351.2673297204106,23.904724783642937,7.822358229017022,111.59043362492905,116.5859349825012,-76.84298419814641,30.62944763580772
3.6169999999999902,0,0,0,-43.81921,172.655487,12.472999,A,3,1,12,11.8,10.0,-0.042,-0.729,-0.038,-4.3,-55.9,-2.0,97505,376.2,29.2,0,4.14,41.9,343.9924664927336,67.74018127994938,21.175756366894767,356.8251046665777,23.788257490363836,7.7952509330343895,110.72056422170428,113.42052911994189,-76.73664028671897,31.130258966484572
3.666999999999973,0,0,0,-43.81921,172.655487,12.472999,A,3,1,12,11.8,10.0,0.003,-0.747,-0.042,-2.4,-56.2,5.5,97505,367.5,29.2,0,4.11,69.8,343.9924664927336,68.92788953866777,21.56496216691753,362.3399772634033,23.720072858387724,7.772981067881455,109.87433965139364,110.82531178613814,-76.5244808407066,30.93740193234748
3.7169999999999845,0,0,0,-43.81921,172.655487,12.472999,A,3,1,12,11.8,10.0,-0.099,-1.116,-0.006,0.2,-57.0,8.5,97505,367.5,28.6,0,4.14,38.2,343.9924664927336,70.11136234338228,21.952828285079214,367.8102942321742,23.618839330182155,7.741663658582244,108.93833909939396,106.91092908375889,-76.526341978581,32.085536994265375
3.766999999999996,0,0,0,-43.81921,172.655487,12.472999,A,3,1,12,11.8,10.0,-0.108,-0.824,0.116,-2.0,-56.0,5.8,97505,358.2,29.2,0,4.14,44.3,343.9924664927336,71.28860121527963,22.338800840761674,373.2335998009006,23.470715545700884,7.6972385687127245,107.99388364961322,102.48198347653174,-76.67253632167585,33.7211506405128
3.816999999999979,0,0,0,-43.81921,172.655487,12.472999,A,3,1,12,11.8,10.0,-0.07,-0.803,0.004,-4.9,-53.6,3.8,97505,350.5,29.2,0,4.11,70.3,343.9924664927336,72.45897249477615,22.722616608091247,378.61153296821647,23.3441356341761,7.655392124475382,107.12344304309373,98.52947735735451,-76.65786682160156,34.918074558618876
3.8669999999999902,0,0,0,-43.81921,172.655487,12.472999,A,3,1,12,11.8,10.0,-0.172,-0.784,0.048,-3.2,-52.6,-1.2,97175,350.5,28.5,0,4.12,73.6,373.34853524288206,73.62311882191136,23.104984097072432,383.9460839476864,23.221717451222045,7.639307434768488,106.25859613565673,95.05632289592918,-76.46955152192808,35.746039762258114
3.916999999999973,0,0,0,-43.81921,172.655487,12.472999,A,3,1,12,11.8,10.0,-0.081,-0.757,0.002,-4.6,-50.5,-2.4,97175,341.0,28.1,0,4.14,44.3,373.34853524288206,74.78117791593303,23.4866494259708,389.23766116749346,23.1006463096605,7.627305721171389,105.40449265669646,92.73845374386502,-76.33956699725447,35.437415094068186
3.9669999999999845,0,0,0,-43.81921,172.655487,12.472999,A,3,1,12,11.8,10.0,-0.211,-0.879,0.275,-1.5,-51.0,1.8,97175,333.0,28.1,0,4.14,47.5,373.34853524288206,75.93185714927803,23.86711862682994,394.48629206265593,22.926523024129054,7.5914623131906955,104.54074314975465,90.77758264317262,-76.14057646274144,34.86912945997166
4.016999999999996,0,0,0,-43.81921,172.655487,12.472999,A,3,1,12,11.8,10.0,-0.109,-0.749,0.038,-4.6,-51.2,-1.3,97175,333.0,28.8,0,4.11,75.9,373.34853524288206,77.0735818130305,24.245848571147285,399.69182943481945,22.74246352595941,7.557735459499702,103.68075173673869,87.9631984838696,-76.10006294935938,35.15398567612469
4.066999999999979,0,0,0,-43.81921,172.655487,12.472999,A,3,1,12,11.8,10.0,-0.039,-0.74,-0.023,-2.7,-50.9,-1.2,97175,326.0,28.7,0,4.14,49.8,373.34853524288206,78.20833374380281,24.62317838641135,404.85475240355595,22.647613704948387,7.535457151068034,102.836167012791,85.8032435298973,-75.91029016877067,34.754227708467106
4.131,0,0,0,-43.819206,172.65541,12.444,A,3,1,10,11.5,10.0,-0.04,-0.896,-0.039,2.5,-53.4,-1.4,96881,318.7,28.7,0,4.14,37.7,399.5701967039608,79.65461062677909,25.104146759181308,411.40006203369245,22.548538888044984,7.494804497988167,101.70475892890664,83.02093270824669,-75.79333772919276,34.28011392319001
4.171999999999997,0,0,0,-43.819206,172.65541,12.444,A,3,1,10,11.5,10.0,-0.039,-0.702,0.006,2.0,-52.0,3.3,96881,318.7,28.9,0,4.11,72.2,399.5701967039608,80.57773903514612,25.410879659204465,415.55527593585,22.482115178642825,7.467775990947399,100.9886021519649,81.06339638371233,-75.9338141174761,34.0512868260258
4.220999999999975,0,0,0,-43.819206,172.65541,12.444,A,3,1,10,11.5,10.0,-0.039,-0.72,0.066,0.7,-51.3,-2.8,96881,311.5,28.9,0,4.14,39.6,399.5701967039608,81.67711847500978,25.775914029126294,420.4838908926148,22.39051501989372,7.431586046684947,100.17935526709631,77.87526728437976,-76.03835532162057,34.72332684141941
4.270999999999987,0,0,0,-43.819206,172.65541,12.444,A,3,1,10,11.5,10.0,0.023,-0.702,0.091,-3.5,-46.5,3.8,96881,304.7,28.9,0,4.14,40.5,399.5701967039608,82.79399385385936,26.146062559876345,425.4723487780436,22.28450013407977,7.374355183313702,99.35896015001208,75.89204834652209,-76.1433380169183,34.13649236779197
4.320999999999998,0,0,0,-43.819206,172.65541,12.444,A,3,1,10,11.5,10.0,-0.024,-0.681,0.072,-3.7,-44.1,4.5,96603,298.0,28.8,0,4.12,72.6,424.4241649861372,83.90561192749135,26.513321509434867,430.42002890958474,22.18022281118976,7.316002799023902,98.54824511158772,73.07492486430012,-75.9635278908278,34.65608448130894
4.370999999999981,0,0,0,-43.819206,172.65541,12.444,A,3,1,10,11.5,10.0,-0.003,-0.663,0.113,-5.1,-42.7,7.0,96603,298.0,28.9,0,4.15,38.2,424.4241649861372,85.01185852865916,26.877821502290285,435.327433158611,22.06964123553784,7.263996915197724,97.74792484952816,70.3009447878698,-75.7573326959437,35.25537117999585
4.420999999999992,0,0,0,-43.819206,172.65541,12.444,A,3,1,10,11.5,10.0,-0.09,-0.666,0.042,-4.1,-44.5,6.2,96603,291.5,28.9,0,4.11,68.0,424.4241649861372,86.11265761389988,27.240155814702543,440.1948341032162,21.962322174080942,7.229375581289359,96.94811293463502,67.29414859572242,-75.43354629750297,36.16799939395784
4.470999999999975,0,0,0,-43.819206,172.65541,12.444,A,3,1,10,11.5,10.0,-0.238,-0.652,-0.001,-4.0,-45.9,1.9,96603,285.0,28.5,0,4.15,43.3,424.4241649861372,87.2084487344187,27.60229672558759,445.0219981982022,21.869322646686214,7.256260854117385,96.13845086487166,64.3423986651651,-75.16039745797362,36.93191015170788
4.520999999999987,0,0,0,-43.819206,172.65541,12.444,A,3,1,10,11.5,10.0,-0.05,-0.622,0.042,-1.3,-48.1,-2.8,96603,285.0,28.6,0,4.15,37.7,424.4241649861372,88.29970680217629,27.965581760386204,449.8089635352291,21.781000063607706,7.275140537823903,95.3401626161604,62.09098402155737,-74.98007623136056,36.89937997689405
4.570999999999998,0,0,0,-43.819206,172.65541,12.444,A,3,1,10,11.5,10.0,0.221,-0.662,0.218,-4.6,-46.1,2.1,96327,278.7,28.6,0,4.14,42.4,449.1566855700208,89.38569622662776,28.326924524237167,454.5565939061167,21.658576914440957,7.178570016211298,94.56505221929957,60.27905961265228,-75.0317008661213,36.29798220360893
4.620999999999981,0,0,0,-43.819206,172.65541,12.444,A,3,1,10,11.5,10.0,-0.01,-0.628,0.123,-6.1,-44.4,3.5,96327,273.2,29.0,0,4.14,40.1,449.1566855700208,90.46510176715671,28.683190107732337,459.26557331529017,21.517644706731797,7.072053323600373,93.79412414770374,58.08950918543722,-74.8215301030973,36.19100464355123
4.670999999999992,0,0,0,-43.819206,172.65541,12.444,A,3,1,10,11.5,10.0,-0.088,-0.621,-0.021,-5.4,-45.4,2.4,96327,273.2,28.4,0,4.11,70.8,449.1566855700208,91.53870349723144,29.036147847074957,463.93567589590594,21.42642449624783,7.046256250101315,93.00997907688505,55.94677457985912,-74.51154695718631,36.12348579847904
4.720999999999975,0,0,0,-43.819206,172.65541,12.444,A,3,1,10,11.5,10.0,-0.043,-0.726,-0.015,-2.0,-48.0,6.6,96327,266.5,28.4,0,4.17,41.0,449.1566855700208,92.60840523267188,29.38794358561431,468.56578175826724,21.361644921384535,7.025573291477484,92.19425541763027,53.88254761830107,-74.2626788445169,35.92244675849652
4.770999999999987,0,0,0,-43.819206,172.65541,12.444,A,3,1,10,11.5,10.0,-0.01,-0.613,0.018,-2.8,-56.2,0.0,96327,261.7,28.9,0,4.14,40.5,449.1566855700208,93.67465626194651,29.738219054803096,473.1552793890202,21.28839624959095,6.985445476070856,91.38564981244775,50.773654459707345,-74.02272266309168,36.67201122186146
4.820999999999998,0,0,0,-43.819206,172.65541,12.444,A,3,1,10,11.5,10.0,-0.043,-0.597,0.135,-0.3,-50.7,-0.9,96057,261.7,28.7,0,4.14,37.7,473.4071290018821,94.73653670761364,30.086688390089837,477.7052975713716,21.18682157708439,6.953327935395629,90.61507748156623,48.26904961648806,-73.95681690301302,36.36693746851388
4.870999999999981,0,0,0,-43.819206,172.65541,12.444,A,3,1,10,11.5,10.0,-0.007,-0.58,0.064,-7.7,-43.8,7.3,96057,256.0,28.7,0,4.13,48.4,473.4071290018821,95.7931095961147,30.43362576240841,482.2170381276237,21.076093962972863,6.92416695735205,89.85454476857987,45.867105546442446,-74.01673369343024,36.24115585206982
4.920999999999992,0,0,0,-43.819206,172.65541,12.444,A,3,1,10,11.5,10.0,-0.023,-0.556,0.003,-4.5,-45.1,6.8,96057,250.7,28.6,0,4.11,68.9,473.4071290018821,96.84496960103827,30.778923619632533,486.6908532762384,20.99830623396053,6.887747331609601,89.09806117596538,43.71000226980786,-73.52637368452386,36.21953990908306
4.970999999999975,0,0,0,-43.819206,172.65541,12.444,A,3,1,10,11.5,10.0,-0.051,-0.557,0.138,-1.7,-44.9,6.3,96057,250.7,28.3,0,4.15,48.9,473.4071290018821,97.89256066821349,31.122782977548916,491.12701818798735,20.90533645306263,6.866626985050461,88.34853529405396,41.21572889323031,-73.16311635157767,36.481969116651314
5.020999999999987,0,0,0,-43.819206,172.65541,12.444,A,3,1,10,11.5,10.0,-0.24,-0.54,0.156,-5.2,-44.9,4.7,96057,246.0,28.3,0,4.13,76.8,473.4071290018821,98.93492556236583,31.467080905185888,495.52567300567074,20.789259313021613,6.90529012042528,87.5976574132408,38.49103238221866,-72.90571026672377,36.99619318011347
5.070999999999998,0,0,0,-43.819206,172.65541,12.444,A,3,1,10,11.5,10.0,-0.14,-0.542,0.012,-7.8,-44.9,-3.5,95814,241.2,28.4,0,4.14,45.2,495.2797652652253,99.97238837607284,31.813635653992183,499.88659480068117,20.709253235249562,6.956899831823359,86.8392143871368,36.4141664332062,-72.59933979048829,36.83286504046415
5.134999999999991,0,0,0,-43.819198,172.655334,12.444,A,3,1,10,11.3,10.0,-0.012,-0.547,0.0,-4.2,-45.9,-3.7,95814,241.2,29.1,0,4.14,39.6,495.2797652652253,101.29540973095892,32.25841172577518,505.41342035888283,20.635164104945,6.9423524113969695,85.87408430668349,35.19688052230926,-72.53737134817368,35.1131221798208
5.175999999999988,0,0,0,-43.819198,172.655334,12.444,A,3,1,10,11.3,10.0,-0.037,-0.515,-0.007,-2.4,-46.0,-2.3,95814,237.7,29.1,0,4.11,73.6,495.2797652652253,102.14046376727171,32.542471667559276,508.9217766067176,20.58698400787719,6.914230114657433,85.26524485599923,34.00634122588598,-72.59518184327753,34.398919768681914
5.224999999999994,0,0,0,-43.819198,172.655334,12.444,A,3,1,10,11.3,10.0,-0.019,-0.511,-0.006,2.3,-47.9,-2.1,95814,233.2,28.5,0,4.15,38.7,495.2797652652253,103.14791341026921,32.880521262023166,513.0821301850934,20.533409583852002,6.88371251651996,84.54510528176881,32.219751141643876,-72.66161467461328,33.9216518883973
5.274999999999977,0,0,0,-43.819198,172.655334,12.444,A,3,1,10,11.3,10.0,0.177,-0.529,0.158,-4.1,-40.1,7.2,95814,233.2,28.7,0,4.15,44.3,495.2797652652253,104.17179360959258,33.22322605965612,517.2914111352551,20.421798389097113,6.824479388802831,83.82613272475521,29.630712676334355,-72.84708837876508,34.13754911318104
5.324999999999989,0,0,0,-43.819198,172.655334,12.444,A,3,1,10,11.3,10.0,-0.04,-0.508,0.133,-4.6,-40.3,7.9,95553,229.2,28.7,0,4.17,39.6,518.8226861033615,105.18941940081076,33.563480245216724,521.464847658061,20.283233259620662,6.785688033618108,83.11132818744201,27.595565530449676,-72.46840394723147,34.18185817186632
5.375,0,0,0,-43.819198,172.655334,12.444,A,3,1,10,11.3,10.0,-0.065,-0.526,-0.062,-1.4,-41.0,5.3,95553,225.2,28.8,0,4.14,42.4,518.8226861033615,106.20188969036661,33.90242172550996,525.6019944445977,20.215578322603854,6.771971178108149,82.37454327398845,25.61381066014639,-72.04700172051241,34.159705682259144
5.424999999999983,0,0,0,-43.819198,172.655334,12.444,A,3,1,10,11.3,10.0,-0.039,-0.502,-0.027,2.0,-39.5,1.9,95553,225.2,29.1,0,4.16,37.7,518.8226861033615,107.21181236573061,34.240162010159,529.7022106217373,20.18132869196972,6.737640207858075,81.63410381165116,23.36324135664266,-71.81075427123332,34.38346405237258
5.474999999999994,0,0,0,-43.819198,172.655334,12.444,A,3,1,10,11.3,10.0,-0.015,-0.477,-0.023,4.8,-39.6,1.5,95553,222.2,29.1,0,4.13,42.9,518.8226861033615,108.21975028769846,34.576075769219955,533.7658133500512,20.136188186735307,6.698910154577154,80.91000532086834,20.93478539922559,-71.79340687142414,34.873588057432244
5.524999999999977,0,0,0,-43.819198,172.655334,12.444,A,3,1,10,11.3,10.0,0.007,-0.573,0.125,8.2,-39.1,1.1,95553,218.2,28.5,0,4.11,71.2,518.8226861033615,109.22444671995152,34.910274795191334,537.7929732483576,20.05166910340048,6.669050884282679,80.17639061144384,18.12261218370092,-71.8347265616976,35.762303290406756
5.574999999999989,0,0,0,-43.819198,172.655334,12.444,A,3,1,10,11.3,10.0,-0.039,-0.474,0.153,2.4,-37.6,3.1,95333,218.2,29.1,0,4.16,41.5,538.7077721496632,110.22419425407287,35.24373163312377,541.7835131446602,19.938232261444483,6.669222633011886,79.44520524062222,14.84568849213705,-71.92867421045972,37.165963887083606
5.625,0,0,0,-43.819198,172.655334,12.444,A,3,1,10,11.3,10.0,0.031,-0.465,0.125,-3.7,-36.2,5.2,95333,215.0,29.1,0,4.14,38.7,538.7077721496632,111.2183925855059,35.57722336884668,545.7381449177567,19.829700995867576,6.670446795901495,78.74006568320223,12.42041960372119,-71.83525708420913,37.75246527339421
5.674999999999983,0,0,0,-43.819198,172.655334,12.444,A,3,1,10,11.3,10.0,-0.058,-0.462,0.063,-7.4,-35.8,6.8,95333,211.5,29.0,0,4.11,73.1,538.7077721496632,112.20769972724922,35.910524354879485,549.657505094565,19.742584673878778,6.661592645415081,78.03434138917984,10.92005147768068,-71.57113009090259,37.439145283916666
5.724999999999994,0,0,0,-43.819198,172.655334,12.444,A,3,1,10,11.3,10.0,0.023,-0.44,0.056,-6.5,-36.2,6.0,95333,211.5,28.9,0,4.15,40.1,538.7077721496632,113.19301422114383,36.24319316786105,553.5416888415607,19.66999508189676,6.645159873844583,77.33300849061543,9.9481659649888,-71.1970003406359,36.58868580528922
5.774999999999977,0,0,0,-43.819198,172.655334,12.444,A,3,1,10,11.3,10.0,-0.024,-0.446,0.008,-5.9,-36.3,4.5,95333,208.5,28.9,0,4.14,41.0,538.7077721496632,114.17481145246599,36.57468028229294,557.3909517732552,19.601894171002858,6.6143247034353685,76.63750877721654,8.849729592447893,-70.8746500310673,35.849132245328114
5.824999999999989,0,0,0,-43.819198,172.655334,12.444,A,3,1,10,11.3,10.0,-0.037,-0.433,-0.04,-4.0,-35.1,4.0,95122,205.2,28.8,0,4.14,45.2,557.8143167578213,115.15384075529323,36.90446313971746,561.2053395811309,19.55927794207773,6.5769895935424545,75.9380035377781,7.699171244290269,-70.63561421345706,35.158234697123895
5.875,0,0,0,-43.819198,172.655334,12.444,A,3,1,10,11.3,10.0,0.003,-0.428,-0.019,-2.3,-35.2,6.9,95122,205.2,28.6,0,4.14,48.0,557.8143167578213,116.13074235162965,37.23216983844864,564.9849099470398,19.516785911370146,6.5312783557018586,75.24481109854383,6.3571366987682385,-70.4380248907386,34.73313035607442
5.924999999999983,0,0,0,-43.819198,172.655334,12.444,A,3,1,10,11.3,10.0,-0.126,-0.432,-0.12,0.5,-35.5,1.6,95122,201.7,28.6,0,4.14,45.2,557.8143167578213,117.1061987280792,37.5575126212521,568.7296375260937,19.501469146625563,6.482432956441034,74.54429206366216,4.743348644647045,-70.10806179901009,34.5907108761224
5.9879999999999995,0,0,0,-43.819183,172.655258,12.394,A,3,1,5,11.2,10.0,-0.089,-0.434,-0.133,1.3,-38.2,6.0,95122,199.2,28.9,0,4.11,68.0,557.8143167578213,118.33547232182698,37.96355606439761,573.3977632617759,19.523089385039693,6.407835079920754,73.65017573573428,2.3006591512670673,-70.0388069090306,34.82632111224662
6.0309999999999775,0,0,0,-43.819183,172.655258,12.394,A,3,1,5,11.2,10.0,-0.044,-0.401,0.047,2.9,-36.7,5.4,95122,199.2,28.4,0,4.11,83.8,557.8143167578213,119.17458965168761,38.238377518901686,576.5518761433648,19.505623631753835,6.3745581528335595,73.05274898940567,0.41721285978415545,-69.80117619137779,35.093881464280635
6.078999999999979,0,0,0,-43.819183,172.655258,12.394,A,3,1,5,11.2,10.0,-0.021,-0.418,0.005,6.6,-34.1,6.5,94904,196.0,28.4,0,4.15,41.5,577.5908067696543,120.10965681789166,38.54386181423386,580.0426344461905,19.455508293413573,6.353954152673041,72.39551362832945,-1.792204399002095,-69.56029668134619,35.58385225852529
6.128999999999991,0,0,0,-43.819183,172.655258,12.394,A,3,1,5,11.2,10.0,0.012,-0.389,0.122,-5.0,-30.2,7.8,94904,194.0,28.7,0,4.14,36.8,577.5908067696543,121.08064450517989,38.86121997173039,583.6454698638951,19.383999198106764,6.340372147185434,71.71790307982015,-4.411519738584629,-69.23719952654598,36.5735990142517
6.178999999999974,0,0,0,-43.819183,172.655258,12.394,A,3,1,5,11.2,10.0,-0.111,-0.395,-0.055,-2.3,-29.3,7.0,94904,194.0,28.8,0,4.11,72.2,577.5908067696543,122.0487165660891,39.177847112975854,587.2143793389256,19.338883238274533,6.324713502637228,71.03847592144791,-5.268752002949713,-68.8878603944012,35.88769383092669
6.228999999999985,0,0,0,-43.819183,172.655258,12.394,A,3,1,5,11.2,10.0,-0.142,-0.391,-0.054,1.5,-33.4,2.3,94904,191.5,28.9,0,4.15,38.2,577.5908067696543,123.01583362827743,39.493192568353216,590.7490080133279,19.3457992492502,6.289104712454278,70.34667105461145,-6.4317127103492915,-68.56893134373341,35.57661313310406
6.278999999999996,0,0,0,-43.819183,172.655258,12.394,A,3,1,5,11.2,10.0,-0.043,-0.364,0.0,5.6,-37.7,-1.6,94904,189.5,28.9,0,4.14,42.9,577.5908067696543,123.98283600018193,39.80686926299014,594.2493668692159,19.3342956269212,6.257963073019829,69.66768318087887,-8.336677955784605,-68.46176570903111,35.842185616502846
6.328999999999979,0,0,0,-43.819183,172.655258,12.394,A,3,1,5,11.2,10.0,-0.017,-0.367,0.105,4.8,-37.6,0.1,94710,189.5,28.9,0,4.14,41.5,595.2210254123996,124.94824249596566,40.119519609003774,597.7161339481258,19.281964204441042,6.2480507675297,69.00299997556324,-11.04097402221126,-68.50848877275988,36.73590126863727
6.378999999999991,0,0,0,-43.819183,172.655258,12.394,A,3,1,5,11.2,10.0,-0.006,-0.366,0.142,1.8,-35.3,1.0,94710,187.0,28.3,0,4.12,71.2,595.2210254123996,125.91049198209177,40.432342367350905,601.1496628801333,19.208015240594907,6.264859566352705,68.33815730470565,-13.59976319089106,-68.46560786891709,37.47857956486426
6.428999999999974,0,0,0,-43.819183,172.655258,12.394,A,3,1,5,11.2,10.0,-0.018,-0.363,0.077,-1.9,-33.7,3.7,94710,184.0,28.3,0,4.16,42.4,595.2210254123996,126.86916642751962,40.74584970143165,604.5499706281647,19.138962576531856,6.275433796881508,67.6741526165983,-15.640847473415848,-68.40615157645048,37.78851125258805
6.478999999999985,0,0,0,-43.819183,172.655258,12.394,A,3,1,5,11.2,10.0,-0.037,-0.355,0.072,-5.0,-30.7,6.4,94710,184.0,28.8,0,4.14,41.9,595.2210254123996,127.82477328438237,41.05957342474868,607.9171036786277,19.085311697970045,6.273515135796575,67.01116940188922,-17.053283701353617,-68.26581871422765,37.508309466123784
6.528999999999996,0,0,0,-43.819183,172.655258,12.394,A,3,1,5,11.2,10.0,-0.006,-0.348,0.05,-5.0,-31.7,7.3,94523,182.2,28.5,0,4.11,63.8,612.242802159216,128.777722261022,41.37305383080041,611.2512157774161,19.03264736760672,6.265701106269937,66.35331454961866,-17.84158617140314,-68.04517992739075,36.71694241300778
6.578999999999979,0,0,0,-43.819183,172.655258,12.394,A,3,1,5,11.2,10.0,-0.097,-0.333,-0.029,-4.5,-32.9,5.7,94523,179.7,28.5,0,4.16,41.0,612.242802159216,129.72860326492702,41.68568852045975,614.5525035196885,19.00259278860681,6.239686480107919,65.69819514132072,-18.6464945795514,-67.78591868223678,35.88819896398993
6.628999999999991,0,0,0,-43.819183,172.655258,12.394,A,3,1,5,11.2,10.0,-0.062,-0.337,-0.014,-1.4,-34.5,2.6,94523,179.7,28.8,0,4.15,40.1,612.242802159216,130.67841806523066,41.996754355248726,617.8210266884435,18.989999223530422,6.202946911448182,65.04273160884948,-19.631620884562846,-67.5989390868386,35.188080954567575
6.678999999999974,0,0,0,-43.819183,172.655258,12.394,A,3,1,5,11.2,10.0,-0.075,-0.323,-0.019,2.4,-36.2,0.9,94523,177.7,28.9,0,4.14,41.5,612.242802159216,131.62746806659837,42.30599669505056,621.0568806641479,18.972000831191025,6.166746680629383,64.39142741937461,-21.17380436544101,-67.50910658701166,35.00342994410109
6.728999999999985,0,0,0,-43.819183,172.655258,12.394,A,3,1,5,11.2,10.0,0.018,-0.327,-0.034,5.5,-35.1,1.3,94523,176.0,28.9,0,4.16,40.5,612.242802159216,132.57521236459442,42.61321385652609,624.2604243094462,18.937771088642116,6.121939778388903,63.75031839252571,-23.296318861299117,-67.42835607616851,35.3549279029886
6.778999999999996,0,0,0,-43.819183,172.655258,12.394,A,3,1,5,11.2,10.0,-0.064,-0.316,0.041,5.7,-34.2,0.7,94339,176.0,28.8,0,4.16,42.4,629.0181383049475,133.52112161590912,42.918501279121884,627.4319245114193,18.898598963937886,6.089557125440171,63.10968968637168,-25.67209625340009,-67.25994227029854,36.04077780785995
6.828999999999979,0,0,0,-43.819183,172.655258,12.394,A,3,1,5,11.2,10.0,-0.041,-0.311,0.08,3.5,-32.7,0.6,94339,174.0,28.9,0,4.14,44.7,629.0181383049475,134.46530388630853,43.2228909651219,630.5712415123334,18.868691852051295,6.086030314564618,62.46299035023397,-28.034183400951612,-67.10299932622239,36.76141220595628
6.878999999999991,0,0,0,-43.819183,172.655258,12.394,A,3,1,5,11.2,10.0,0.0,-0.314,0.028,3.0,-32.0,2.6,94339,171.7,28.9,0,4.11,77.3,629.0181383049475,135.4076588970277,43.52695926775744,633.6783834500259,18.825508576706017,6.076701790854374,61.822687157440114,-30.080907567327788,-66.9932187593058,37.221731452601766
6.928999999999974,0,0,0,-43.819183,172.655258,12.394,A,3,1,5,11.2,10.0,0.009,-0.312,0.042,2.5,-31.3,2.3,94339,171.7,28.7,0,4.14,44.7,629.0181383049475,136.34762017679756,43.83029164248869,636.7536492898549,18.77294261410155,6.056593198399763,61.187946435762164,-31.90967277954398,-66.804587034805,37.48365194710445
6.992999999999995,0,0,0,-43.819175,172.655181,12.21,A,3,1,5,11.1,10.0,-0.072,-0.296,0.036,4.9,-30.3,1.8,94339,169.2,28.6,0,4.15,42.4,629.0181383049475,137.54767369546343,44.217206114453134,640.643590199889,18.728729844194667,6.034484050485011,60.3727070027614,-34.14466014878483,-66.59216792608669,37.75296071245689
7.032999999999987,0,0,0,-43.819175,172.655181,12.21,A,3,1,5,11.1,10.0,-0.048,-0.292,0.092,4.4,-29.6,1.9,94168,167.7,28.6,0,4.11,67.1,644.6320292069314,138.29649603151697,44.45851156278177,643.0482602422786,18.71238695849012,6.030788365949194,59.86079511674556,-35.69734548913749,-66.41871796088321,38.13504339410331
7.081999999999994,0,0,0,-43.819175,172.655181,12.21,A,3,1,5,11.1,10.0,0.023,-0.298,0.15,1.4,-28.2,4.3,94168,167.7,28.3,0,4.14,41.5,644.6320292069314,139.2123473457822,44.7545354436636,645.9660824489822,18.6692993380458,6.051819016980887,59.23398883032552,-37.49536903858694,-66.21155094475714,38.527645057528915
7.131999999999977,0,0,0,-43.819175,172.655181,12.21,A,3,1,5,11.1,10.0,0.038,-0.289,0.104,-4.1,-26.3,7.5,94168,165.7,28.9,0,4.14,39.1,644.6320292069314,140.1442356635541,45.05773763628647,648.9119525981124,18.60623337284262,6.076268687938009,58.60081713492396,-38.80981549376812,-65.99416381529687,38.43642521498752
7.181999999999988,0,0,0,-43.819175,172.655181,12.21,A,3,1,5,11.1,10.0,-0.083,-0.284,0.022,-8.0,-25.1,9.1,94168,164.7,28.9,0,4.14,40.5,644.6320292069314,141.07364858593104,45.36138727857338,651.8262319060319,18.570283522226518,6.069717003535808,57.97035518183103,-39.31921345215664,-65.82645982456218,37.56728081086809
7.231999999999999,0,0,0,-43.819175,172.655181,12.21,A,3,1,5,11.1,10.0,-0.119,-0.272,0.069,-8.0,-26.6,6.3,94168,164.7,29.1,0,4.11,66.6,644.6320292069314,142.0022107554686,45.66446443253671,654.7088330620197,18.572203259268154,6.053369154994635,57.333691057652636,-39.32404309354592,-65.72202370864443,36.209712503609715
7.281999999999982,0,0,0,-43.819175,172.655181,12.21,A,3,1,5,11.1,10.0,0.011,-0.279,0.042,-8.1,-26.9,2.9,94005,163.2,28.7,0,4.14,42.4,659.5368329412045,142.9303242354007,45.96691761735673,657.5597802372123,18.552335938027394,6.044758237810037,56.70419595008873,-39.603476402121395,-65.72705851837912,35.07057639222364
7.331999999999994,0,0,0,-43.819175,172.655181,12.21,A,3,1,5,11.1,10.0,-0.032,-0.279,-0.082,-5.5,-28.5,3.8,94005,161.5,28.7,0,4.15,39.1,659.5368329412045,143.85688282203796,46.26810165419219,660.3796250347878,18.510007527455524,6.002603235605808,56.08959595290296,-40.12835781141989,-65.86906893702682,34.18475280951917
7.381999999999977,0,0,0,-43.819175,172.655181,12.21,A,3,1,5,11.1,10.0,-0.043,-0.275,-0.069,-1.2,-29.1,3.7,94005,161.5,29.1,0,4.11,69.8,659.5368329412045,144.78159350182136,46.56649639889722,663.1688379191718,18.478419663892705,5.933186552599474,55.47891942249704,-40.88913343158476,-65.89648657155766,33.47032011710671
7.431999999999988,0,0,0,-43.819175,172.655181,12.21,A,3,1,5,11.1,10.0,-0.041,-0.264,-0.016,3.2,-31.2,3.4,94005,160.7,29.1,0,4.15,41.5,659.5368329412045,145.70481622873098,46.86182033488515,665.9274810797685,18.450489412483705,5.87977088691507,54.866807001348086,-42.04879852663294,-65.79016565901433,33.15996145770084
7.481999999999999,0,0,0,-43.819175,172.655181,12.21,A,3,1,5,11.1,10.0,-0.058,-0.271,-0.024,6.5,-32.6,2.4,94005,159.5,29.1,0,4.14,44.3,659.5368329412045,146.62674069320846,47.1547090403241,668.6554491170045,18.426489166607848,5.835777330640055,54.25191448806507,-43.68924895749162,-65.54830684871936,33.261590996139724
7.531999999999982,0,0,0,-43.819175,172.655181,12.21,A,3,1,5,11.1,10.0,-0.056,-0.246,0.026,7.3,-33.1,0.9,93847,159.5,29.0,0,4.14,38.7,674.004421360262,147.54761258840816,47.44561825595159,671.3526806768498,18.40838664139275,5.800591294463446,53.637347905783336,-45.714328880277186,-65.22470881539728,33.7095178853449
7.581999999999994,0,0,0,-43.819175,172.655181,12.21,A,3,1,5,11.1,10.0,0.016,-0.25,0.034,6.2,-32.6,0.9,93847,158.0,28.1,0,4.12,68.9,674.004421360262,148.46725313663657,47.73521648379136,674.0193348104234,18.377235287735118,5.783337819124885,53.02881743713517,-47.90918751291642,-64.91662479290869,34.31823748368549
7.631999999999977,0,0,0,-43.819175,172.655181,12.21,A,3,1,5,11.1,10.0,-0.026,-0.247,0.025,5.2,-32.7,3.2,93847,155.5,28.1,0,4.15,40.5,674.004421360262,149.3851640756752,48.02396021778964,676.6556174845293,18.339202273822153,5.766411540810303,52.42248952713835,-49.97040273141602,-64.6406970263197,34.80832168487126
7.681999999999988,0,0,0,-43.819175,172.655181,12.21,A,3,1,5,11.1,10.0,0.043,-0.239,0.033,5.0,-30.7,5.5,93847,155.5,28.9,0,4.14,41.5,674.004421360262,150.3010495302859,48.31190891358548,679.2616908701318,18.29621591059719,5.751536291020396,51.82044589693541,-51.758108763838635,-64.3241143472338,34.99099730148918
7.731999999999999,0,0,0,-43.819175,172.655181,12.21,A,3,1,5,11.1,10.0,-0.005,-0.24,0.044,4.5,-29.4,7.7,93847,155.2,28.4,0,4.11,69.8,674.004421360262,151.21470599094476,48.59925265192966,681.8376998308726,18.25004251574941,5.74221324274434,51.2199125326701,-53.22396175107559,-63.943336836960114,34.92765408536829
7.781999999999982,0,0,0,-43.819175,172.655181,12.21,A,3,1,5,11.1,10.0,-0.026,-0.225,0.064,2.5,-28.7,8.8,93703,153.5,28.4,0,4.14,40.1,687.2072608314168,152.12650844338805,48.88616557775852,684.3835825654901,18.222055581994393,5.734303790413875,50.615396852064315,-54.398286698435996,-63.518523339718584,34.611475723619776
7.831999999999994,0,0,0,-43.819175,172.655181,12.21,A,3,1,5,11.1,10.0,-0.009,-0.22,0.084,0.0,-27.3,8.7,93703,153.5,28.7,0,4.14,46.6,687.2072608314168,153.03703991580494,49.172911417619225,686.8992555347771,18.19920331467295,5.735529804011718,50.01152191939215,-55.32291446887912,-63.146458918189474,34.05394843978375
7.881999999999977,0,0,0,-43.819175,172.655181,12.21,A,3,1,5,11.1,10.0,-0.068,-0.219,0.022,-2.4,-28.5,7.6,93703,152.5,28.8,0,4.14,45.2,687.2072608314168,153.9465814369212,49.45938369760805,689.3848008970141,18.182457529989843,5.723361395544967,49.41029257012234,-56.04361529764581,-62.88408209920943,33.34457003065432
7.931999999999988,0,0,0,-43.819175,172.655181,12.21,A,3,1,5,11.1,10.0,0.049,-0.225,-0.011,-1.5,-29.3,9.2,93703,151.5,28.8,0,4.14,45.2,687.2072608314168,154.85477989164883,49.74489115121424,691.8405682985704,18.14548065910723,5.6969367487000495,48.82040349210815,-56.783094350821976,-62.75621924121286,32.58761686403713
7.981999999999999,0,0,0,-43.819175,172.655181,12.21,A,3,1,5,11.1,10.0,-0.057,-0.217,-0.015,1.1,-28.7,10.2,93703,151.5,28.6,0,4.14,46.6,687.2072608314168,155.760978463441,50.02890739085935,694.266961955384,18.102462212571943,5.663712837101922,48.23534278041648,-57.481601839051606,-62.55149225725004,31.738371212445355
8.032999999999987,0,0,0,-43.819175,172.655181,12.21,A,3,1,5,11.1,10.0,-0.106,-0.205,0.01,2.7,-29.4,6.2,93564,150.5,28.9,0,4.14,39.1,699.9672610684111,156.6839973034394,50.31657773715181,696.711569711118,18.094355042275783,5.617477213585318,47.63162803270783,-58.21979972002184,-62.208270902271586,30.93354647284702
8.094999999999999,0,0,0,-43.818805,172.65541,11.362999,A,3,1,7,9.9,10.0,-0.15,-0.2,-0.003,3.3,-30.7,-1.0,93564,150.2,28.9,0,4.14,39.6,699.9672610684111,157.806321468534,50.662779328388886,699.6418846408282,18.109650283349794,5.550316052124616,46.89466002243973,-59.655104648396055,-61.84269727179144,30.511844998441607
8.134999999999991,0,0,0,-43.818805,172.65541,11.362999,A,3,1,7,9.9,10.0,-0.138,-0.195,0.009,4.3,-32.6,-5.3,93564,148.5,28.2,0,4.11,66.6,699.9672610684111,158.5310077730397,50.883842678609554,701.5081786378543,18.124664941941518,5.502851458910879,46.42003982888598,-61.113264898434835,-61.73159400186851,30.78406922081244
8.183999999999997,0,0,0,-43.818805,172.65541,11.362999,A,3,1,7,9.9,10.0,-0.045,-0.195,0.025,4.3,-33.0,-7.7,93564,148.5,28.9,0,4.15,39.6,699.9672610684111,159.41913949061708,51.152495604914606,703.7686283089521,18.125609244885066,5.462574104559164,45.84321205264731,-63.37152449373429,-61.64521913221819,31.548242155382624
8.23399999999998,0,0,0,-43.818805,172.65541,11.362999,A,3,1,7,9.9,10.0,0.015,-0.189,0.056,2.3,-30.7,-7.5,93564,148.2,28.9,0,4.11,69.4,699.9672610684111,160.32483861078873,51.42531676183338,706.0461928349687,18.102355561992866,5.450272172195359,45.25936898804867,-65.8871954200598,-61.59317088607287,32.545973100098564
8.283999999999992,0,0,0,-43.818805,172.65541,11.362999,A,3,1,7,9.9,10.0,-0.005,-0.182,0.098,-1.0,-28.5,-5.3,93439,146.2,28.2,0,4.14,40.1,711.4551966367023,161.22943823837502,51.69799736571288,708.294488823681,18.081629541450866,5.45695198298231,44.672470560423164,-68.19320606710082,-61.60939605615842,33.43626707085768
8.333999999999975,0,0,0,-43.818805,172.65541,11.362999,A,3,1,7,9.9,10.0,0.016,-0.186,0.039,-3.7,-25.7,-2.0,93439,146.2,28.7,0,4.15,36.4,711.4551966367023,162.13297726351598,51.97092521512588,710.5134953124269,18.059931464199625,5.460161993541534,44.08778898944335,-70.09235231238199,-61.72509649618191,33.98874827305105
8.383999999999986,0,0,0,-43.818805,172.65541,11.362999,A,3,1,7,9.9,10.0,0.074,-0.178,0.023,-4.6,-23.2,1.8,93439,146.0,28.7,0,4.14,43.3,711.4551966367023,163.0348643446576,52.243967225540054,712.7035620292334,18.01555178145601,5.461518423022927,43.514879682792845,-71.48686107490484,-61.90640320653141,34.12677637767698
8.433999999999997,0,0,0,-43.818805,172.65541,11.362999,A,3,1,7,9.9,10.0,0.025,-0.182,-0.015,-3.3,-22.4,6.2,93439,145.5,29.1,0,4.11,47.1,711.4551966367023,163.93433951798252,52.51688196669125,714.8651550769972,17.963455151533534,5.455071223022511,42.94884222774221,-72.39830266315887,-62.070251981004056,33.85900311123678
8.48399999999998,0,0,0,-43.818805,172.65541,11.362999,A,3,1,7,9.9,10.0,0.05,-0.181,-0.001,-0.2,-22.3,9.9,93439,145.5,28.9,0,4.15,39.1,711.4551966367023,164.83124450558142,52.789287838820044,716.9984681782669,17.912744352435123,5.441163662132831,42.383681823073175,-72.91275640084923,-62.10802535006307,33.187499328604034
8.533999999999992,0,0,0,-43.818805,172.65541,11.362999,A,3,1,7,9.9,10.0,0.015,-0.18,-0.025,3.4,-23.4,10.9,93311,145.0,28.9,0,4.14,37.3,723.2317456424497,165.7256204667565,53.06093582830743,719.1035539628275,17.862294094559932,5.424755917360088,41.81974955933094,-73.17618435829601,-61.94571513460063,32.23703643549329
8.583999999999975,0,0,0,-43.818805,172.65541,11.362999,A,3,1,7,9.9,10.0,-0.071,-0.171,-0.064,6.7,-23.3,9.4,93311,144.2,29.1,0,4.11,72.2,723.2317456424497,166.61779728058286,53.33102420856409,721.1805770014107,17.824778458506113,5.378779292910088,41.26117198402751,-73.50886429566613,-61.5989452767956,31.300491678817135
8.633999999999986,0,0,0,-43.818805,172.65541,11.362999,A,3,1,7,9.9,10.0,-0.051,-0.165,-0.014,9.6,-26.8,6.7,93311,144.2,28.9,0,4.12,64.7,723.2317456424497,167.50843695282612,53.5986089658383,723.2296761930111,17.80080843121633,5.324610998056153,40.70279567996687,-74.06199504476201,-61.118120891324786,30.61715956119889
8.683999999999997,0,0,0,-43.818805,172.65541,11.362999,A,3,1,7,9.9,10.0,-0.082,-0.162,-0.003,10.9,-28.5,3.8,93311,142.7,28.9,0,4.15,42.9,723.2317456424497,168.39812857299196,53.8636906165398,725.250739033844,17.786856375409975,5.278655030001265,40.139717953331505,-75.09345354094489,-60.53800391230081,30.277709422995947
8.73399999999998,0,0,0,-43.818805,172.65541,11.362999,A,3,1,7,9.9,10.0,-0.047,-0.157,-0.009,10.7,-30.0,0.4,93311,141.0,28.6,0,4.14,40.1,723.2317456424497,169.28711659800632,54.126510767822516,727.2436954629779,17.772664625175874,5.234151021311098,39.578539212054984,-76.4694329148111,-59.934101829673914,30.23522702230906
8.783999999999992,0,0,0,-43.818805,172.65541,11.362999,A,3,1,7,9.9,10.0,-0.038,-0.146,0.025,10.4,-29.1,-1.3,93198,141.0,28.6,0,4.15,41.0,733.6391066320675,170.17533914162448,54.38741210645589,729.208641594706,17.756237119542565,5.201902524021543,39.01930605705254,-78.1731262292925,-59.3780521337078,30.48532139685975
8.833999999999975,0,0,0,-43.818805,172.65541,11.362999,A,3,1,7,9.9,10.0,-0.007,-0.146,0.044,9.5,-27.9,-2.8,93198,139.7,28.6,0,4.14,47.5,733.6391066320675,171.06279965112032,54.647077433344904,731.1455587444581,17.742183260303648,5.184710551542601,38.45737993305436,-79.93376303512355,-58.849302373506525,30.855609651363647
8.883999999999986,0,0,0,-43.818805,172.65541,11.362999,A,3,1,7,9.9,10.0,0.006,-0.146,0.083,6.8,-26.7,-3.4,93198,139.0,28.7,0,4.13,50.3,733.6391066320675,171.9496082848245,54.906267637428535,733.0542272483942,17.73016208785566,5.182897611800388,37.88936022437556,-81.71083654277479,-58.37131986734027,31.317411489763817
8.933999999999997,0,0,0,-43.818805,172.65541,11.362999,A,3,1,7,9.9,10.0,-0.037,-0.138,0.07,3.2,-24.6,-2.5,93198,139.0,28.7,0,4.1,77.7,733.6391066320675,172.8360531799449,55.1652968735779,734.93444489783,17.727633716952425,5.17827183417182,37.31934575303731,-83.41778083243668,-58.0239904603539,31.769351997871894
8.98399999999998,0,0,0,-43.818805,172.65541,11.362999,A,3,1,7,9.9,10.0,-0.051,-0.137,0.043,-0.2,-23.2,-3.8,93094,138.2,28.7,0,4.15,43.3,743.2265961115362,173.72244977650678,55.423673688740074,736.7863195934148,17.728230145534738,5.156800772318493,36.75564207037963,-84.89953568248178,-57.84465183416022,32.080769502343834
9.045999999999992,0,0,0,-43.818618,172.655059,10.833999,A,3,1,6,9.5,10.1,-0.023,-0.137,0.023,-1.6,-22.7,-4.7,93094,138.0,28.8,0,4.15,39.1,743.2265961115362,174.82125834560952,55.74241433211421,739.0437573532813,17.71720756745061,5.125155465554947,36.06493082852902,-86.7419103629865,-57.83252941143105,32.5757702783389
9.089999999999975,0,0,0,-43.818618,172.655059,10.833999,A,3,1,6,9.5,10.1,-0.032,-0.135,0.003,-2.6,-22.3,-3.9,93094,138.0,28.7,0,4.11,76.4,743.2265961115362,175.60046737723525,55.96739515559614,740.6199474874925,17.701384779186597,5.1012456018095875,35.58007527200522,-88.08566009730663,-57.882054704101776,32.99579359447173
9.137,0,0,0,-43.818618,172.655059,10.833999,A,3,1,6,9.5,10.1,0.0,-0.134,-0.033,-2.0,-22.0,-3.4,93094,137.5,28.7,0,4.14,36.4,743.2265961115362,176.4317643522676,56.20650857190373,742.2802175687715,17.672954583872958,5.073793389997488,35.06971542068008,-89.44355801623986,-57.9754927258249,33.374866451182164
9.186999999999983,0,0,0,-43.818618,172.655059,10.833999,A,3,1,6,9.5,10.1,-0.009,-0.133,-0.01,0.1,-22.4,-2.3,93094,137.5,29.1,0,4.11,72.2,743.2265961115362,177.31452835056984,56.45954602959114,744.0201852335579,17.63760534822887,5.047704917502071,34.52899117079675,-90.8377620284187,-58.039785734017755,33.73608677400767
9.236999999999995,0,0,0,-43.818618,172.655059,10.833999,A,3,1,6,9.5,10.1,-0.025,-0.131,-0.011,2.3,-22.6,-1.8,92993,137.5,28.9,0,4.15,38.2,752.5458281193369,178.19571068111517,56.71121715065157,745.7330636307105,17.60968787357642,5.019139924912833,33.986144715292916,-92.16199365591443,-57.99599786668942,33.991194842920216
9.286999999999978,0,0,0,-43.818618,172.655059,10.833999,A,3,1,6,9.5,10.1,-0.04,-0.129,-0.021,3.6,-22.8,-2.4,92993,136.7,28.9,0,4.14,45.2,752.5458281193369,179.0755544057492,56.961273358071836,747.4188653287147,17.584061111796437,4.9831083719011975,33.445923204896204,-93.44532867883642,-57.84050306350104,34.18651023979664
