timestamp,pdop,hdop,vdop,lati,longi,gps_speed,gps_mode,gps_fix_type,gps_fix_quality,gps_sats_tracked,gps_alt,gps_height,accel_x_g,accel_y_g,accel_z_g,gyro_x_dps,gyro_y_dps,gyro_z_dps,pressure_pa,tc_temp_C,cjc_temp_C,oc_sc_flags,batt_voltage_V,batt_current_mA,baro_calculated_altitude_m,pos_x,pos_y,pos_z,vel_x,vel_y,vel_z,roll_deg,pitch_deg,yaw_deg
0.0,0,0,0,-43.819213,172.65567,0.0,A,3,1,13,12.6,10.0,-0.076,0.997,-0.094,-1.3,-3.6,0.7,101443,27.0,28.6,0,4.15,44.7,-0.258101772141013,0.0,0.0,0.0,0.0,0.0,0.0,0.0,0.0,0.0
0.05000000000001137,0,0,0,-43.819213,172.65567,0.0,A,3,1,13,12.6,10.0,-0.068,0.996,-0.077,-1.2,-1.1,0.7,101443,27.0,28.9,0,4.1,75.9,-0.258101772141013,0.0,0.0,0.0,0.0,0.0,0.0,0.0,0.0,0.0
0.09999999999999432,0,0,0,-43.819213,172.65567,0.0,A,3,1,13,12.6,10.0,-0.065,0.994,-0.084,-0.9,3.1,0.6,101443,27.7,28.9,0,4.12,75.4,-0.258101772141013,0.0,0.0,0.0,0.0,0.0,0.0,0.0,0.0,0.0
0.16399999999998727,0,0,0,-43.819213,172.65567,0.0,A,3,1,13,12.6,10.0,-0.06,0.994,-0.092,0.0,1.8,0.9,101443,26.7,28.2,0,4.16,39.6,-0.258101772141013,0.0,0.0,0.0,0.0,0.0,0.0,0.0,0.0,0.0
0.20499999999998408,0,0,0,-43.819213,172.65567,0.0,A,3,1,13,12.6,10.0,-0.059,0.995,-0.105,-0.2,-1.6,0.5,101443,26.7,29.1,0,4.15,41.9,-0.258101772141013,0.0,0.0,0.0,0.0,0.0,0.0,0.0,0.0,0.0
0.2529999999999859,0,0,0,-43.819213,172.65567,0.0,A,3,1,13,12.6,10.0,-0.059,0.995,-0.098,-0.7,0.1,0.2,101440,27.7,29.1,0,4.15,43.3,0.0,0.0,0.0,0.0,0.0,0.0,0.0,0.0,0.0,0.0
0.30299999999999727,0,0,0,-43.819213,172.65567,0.0,A,3,1,13,12.6,10.0,-0.048,0.995,-0.109,-0.7,-1.3,0.1,101440,28.0,29.1,0,4.14,36.8,0.0,0.0,0.0,0.0,0.0,0.0,0.0,0.0,0.0,0.0
0.35300000000000864,0,0,0,-43.819213,172.65567,0.0,A,3,1,13,12.6,10.0,-0.085,0.996,-0.083,-0.5,-2.3,0.2,101440,28.0,28.8,0,4.14,37.7,0.0,0.0,0.0,0.0,0.0,0.0,0.0,0.0,0.0,0.0
0.4029999999999916,0,0,0,-43.819213,172.65567,0.0,A,3,1,13,12.6,10.0,-0.073,0.995,-0.08,-0.6,0.2,0.4,101440,27.5,28.8,0,4.14,41.0,0.0,8.395165243287727e-06,0.0005901848858316042,3.416869635035958e-05,0.0003358066097316236,0.023607395433272223,0.0013667478540148493,93.98701743458457,-31.313310948066846,82.36982818272904
0.45300000000000296,0,0,0,-43.819213,172.65567,0.0,A,3,1,13,12.6,10.0,-0.063,0.993,-0.096,-0.3,3.8,0.5,101440,27.7,28.9,0,4.11,72.6,0.0,6.127958840631329e-05,0.0016248734818123775,9.058011633665943e-05,0.0017795703167889176,0.017780148405949298,0.0008897089454366318,93.98497586303547,-31.290997813352064,82.36572683901157
0.5029999999999859,0,0,0,-43.819213,172.65567,0.0,A,3,1,13,12.6,10.0,-0.063,0.994,-0.108,-0.4,-0.7,0.5,101440,27.7,29.0,0,4.16,38.7,0.0,7.430223341595857e-05,0.0025055747577598605,0.00013002959713880177,-0.001258664516402929,0.017447902631962033,0.0006882702866495996,93.94918570497198,-31.09094510055055,82.36410026742472
0.5529999999999973,0,0,0,-43.819213,172.65567,0.0,A,3,1,13,12.6,10.0,-0.048,0.994,-0.109,-1.3,-4.0,0.3,101440,27.7,29.0,0,4.15,41.9,0.0,-8.111779960296226e-05,0.0034847887758461113,0.000167833657737008,-0.004958136804352491,0.0217206580914791,0.0008238921372783059,93.94834592327328,-31.113897518288166,82.34937202837484
0.6030000000000086,0,0,0,-43.819213,172.65567,0.0,A,3,1,13,12.6,10.0,-0.055,0.997,-0.095,-1.4,-2.7,0.1,101440,27.2,28.9,0,4.12,69.4,0.0,-0.00032761478531499055,0.004681621335434673,0.00022003746662086805,-0.004901742624126398,0.026152644292052465,0.0012642602180756215,93.98475853748552,-31.299052742178127,82.36034372042594
0.6529999999999916,0,0,0,-43.819213,172.65567,0.0,A,3,1,13,12.6,10.0,-0.079,0.995,-0.076,-0.9,-3.0,0.5,101440,27.2,28.7,0,4.15,38.7,0.0,-0.0005026854906586019,0.005841719131003196,0.0002921136881115761,-0.002101085589620443,0.02025126753070429,0.0016187886415536849,94.02267806166816,-31.418462865545393,82.37544852873637
0.703000000000003,0,0,0,-43.819213,172.65567,0.0,A,3,1,13,12.6,10.0,-0.073,0.995,-0.069,-0.4,2.8,0.6,101440,27.5,28.7,0,4.16,40.1,0.0,-0.0004655460944728143,0.006535699638585864,0.00036108489026295094,0.0035866614370516077,0.007507952772596102,0.0011400594445006799,94.0397176195102,-31.5553983607548,82.37638664728655
0.7529999999999859,0,0,0,-43.819213,172.65567,0.0,A,3,1,13,12.6,10.0,-0.051,0.994,-0.09,-0.2,7.3,0.7,101443,27.7,29.1,0,4.14,42.9,-0.258101772141013,-0.00012805705924846415,0.0067820375552008726,0.0003980117653087823,0.009912899971927002,0.0023455638920076285,0.000337015557333078,94.00583494938215,-31.40556013584916,82.37891842081899
0.8029999999999973,0,0,0,-43.819213,172.65567,0.0,A,3,1,13,12.6,10.0,-0.069,0.991,-0.119,-0.5,0.8,0.6,101443,27.7,28.7,0,4.11,39.6,-0.258101772141013,0.00027919106446728934,0.0069404574338523765,0.0003984099981758836,0.006377024976699433,0.003991231254051071,-0.00032108624264902993,93.9314137372333,-31.033365605887298,82.39233040343127
0.8530000000000086,0,0,0,-43.819213,172.65567,0.0,A,3,1,13,12.6,10.0,-0.076,0.992,-0.092,-0.6,-2.3,0.7,101443,27.2,28.7,0,4.14,47.1,-0.258101772141013,0.00042077275104444135,0.007047711498099814,0.00036389298880860443,-0.0007137575136146402,0.00029893131584544973,-0.0010595941320418233,93.91319076066672,-30.982639790177593,82.39155606806158
0.9029999999999916,0,0,0,-43.819213,172.65567,0.0,A,3,1,13,12.6,10.0,-0.059,0.997,-0.088,-0.5,1.9,0.5,101443,27.5,28.7,0,4.14,43.3,-0.258101772141013,0.00040508480796771254,0.006921822924224522,0.00030693608117218985,8.623979054527377e-05,-0.005334474270858853,-0.0012186821734155363,93.91313458903367,-31.08621144889661,82.38642298275985
0.953000000000003,0,0,0,-43.819213,172.65567,0.0,A,3,1,13,12.6,10.0,-0.043,0.996,-0.097,-0.6,0.7,0.4,101443,27.5,28.9,0,4.11,77.7,-0.258101772141013,0.0005106831949937885,0.0067006384754200125,0.0002575585399231777,0.004137695690496807,-0.0035129036813195255,-0.0007564194765445014,93.89218128789393,-30.980309478870357,82.38706311492388
1.002999999999986,0,0,0,-43.819213,172.65567,0.0,A,3,1,13,12.6,10.0,-0.055,0.995,-0.104,-0.7,-3.2,0.3,101438,27.7,28.6,0,4.15,43.3,0.1720712818972014,0.0007480286499261319,0.0066394283807748025,0.00022724270064697837,0.005356122506800165,0.001064499895510284,-0.0004562140945038847,93.88629272664325,-30.93321621331113,82.38493009381638
1.0529999999999973,0,0,0,-43.819213,172.65567,0.0,A,3,1,13,12.6,10.0,-0.067,0.994,-0.083,-0.9,-0.9,0.0,101438,27.2,28.6,0,4.14,48.9,0.1720712818972014,0.0010428523773493546,0.006638341555716036,0.00019996557427983593,0.006436826590126059,-0.0011079728978609068,-0.0006348709601815653,93.9163540177921,-31.07873710011569,82.36928263898548
1.1030000000000086,0,0,0,-43.819213,172.65567,0.0,A,3,1,13,12.6,10.0,-0.067,0.996,-0.089,-0.7,0.2,0.2,101438,27.2,28.6,0,4.11,71.2,0.1720712818972014,0.0014331997148110366,0.006423291008563153,0.00016519936018540523,0.009177066908337672,-0.007494048988252457,-0.0007557776035953468,93.94599673085699,-31.10827989846586,82.36381202001367
1.1670000000000016,0,0,0,-43.819213,172.65567,0.0,A,3,1,13,12.6,10.0,-0.076,0.996,-0.09,-0.3,1.8,0.6,101438,27.2,28.2,0,4.16,43.3,0.1720712818972014,0.0020305367256797215,0.005647639739450226,0.00014409377333243626,0.009489714681310782,-0.016745053171529176,9.622801443999387e-05,93.95819994037008,-31.07801775231956,82.35730248755148
1.2079999999999984,0,0,0,-43.819213,172.65567,0.0,A,3,1,13,12.6,10.0,-0.061,0.994,-0.104,-0.4,1.0,0.7,101438,26.7,28.2,0,4.14,40.5,0.1720712818972014,0.002384383414421228,0.004891713862799155,0.0001556093221855826,0.007771099403642104,-0.020129379835843005,0.0004655060759574323,93.93685471544903,-30.995795443374533,82.35177500064246
1.2560000000000002,0,0,0,-43.819213,172.65567,0.0,A,3,1,13,12.6,10.0,-0.056,0.993,-0.106,-0.7,1.8,0.5,101439,26.7,28.9,0,4.15,42.4,0.0860352975608124,0.0026902557058631565,0.003968921351513472,0.00017365596201488994,0.00497357940643776,-0.0183203081343923,0.00028643725026367833,93.91228907877834,-30.938233775846502,82.34985955308954
1.3060000000000116,0,0,0,-43.819213,172.65567,0.0,A,3,1,13,12.6,10.0,-0.052,0.994,-0.111,-1.0,-3.2,0.3,101439,27.5,28.6,0,4.11,68.4,0.0860352975608124,0.0028582271586119774,0.0031649638282777214,0.00018431797474137413,0.0017452787035135537,-0.013837992795030427,0.00014004325879559272,93.89207434428292,-30.837297331404812,82.36007490842961
1.3559999999999945,0,0,0,-43.819213,172.65567,0.0,A,3,1,13,12.6,10.0,-0.063,0.997,-0.081,-0.9,-2.8,0.2,101439,27.5,28.6,0,4.15,40.1,0.0860352975608124,0.0029745189744813027,0.002470632971287759,0.00019953846278952027,0.0029063939312610493,-0.013935241484577544,0.0004687762631304607,93.92215678705878,-30.982810412952304,82.35945974633069
1.406000000000006,0,0,0,-43.819213,172.65567,0.0,A,3,1,13,12.6,10.0,-0.068,0.996,-0.065,-0.8,-1.8,0.1,101439,27.5,29.0,0,4.14,35.4,0.0860352975608124,0.0033379337906913635,0.0015475890606841663,0.00022160243476397224,0.011630198717138069,-0.022986514939557764,0.00041378261584741784,93.95497223120557,-31.107834424395612,82.35237424301164
1.4559999999999889,0,0,0,-43.819213,172.65567,0.0,A,3,1,13,12.6,10.0,-0.066,0.993,-0.086,0.0,2.4,0.6,101439,27.7,28.9,0,4.14,42.9,0.0860352975608124,0.004099174081327785,0.00017780731546376783,0.00022070175118803282,0.018819412908329187,-0.03180475486927686,-0.0004498099588850065,93.98585520369191,-31.182633503405288,82.34123923783228
1.5060000000000002,0,0,0,-43.819213,172.65567,0.0,A,3,1,13,12.6,10.0,-0.065,0.991,-0.116,-0.4,4.6,0.4,101441,27.5,28.9,0,4.14,42.4,-0.0860346107954208,0.004963783173083037,-0.0014563957067390708,0.0001756170272425125,0.015764950761873,-0.03356336601882182,-0.001353578998935396,93.95507944829302,-31.052639662144518,82.32198201897093
1.5560000000000116,0,0,0,-43.819213,172.65567,0.0,A,3,1,13,12.6,10.0,-0.061,0.995,-0.126,-0.6,-1.7,0.7,101441,27.5,28.6,0,4.14,42.4,-0.0860346107954208,0.005488736469318392,-0.0030336441275641236,0.00011975679446839517,0.005233181087536417,-0.02952657081416595,-0.0008808303120287895,93.91876669105798,-30.812299730367844,82.32548576935702
1.6059999999999945,0,0,0,-43.819213,172.65567,0.0,A,3,1,13,12.6,10.0,-0.073,0.995,-0.095,-1.5,-4.0,0.4,101441,27.2,28.9,0,4.15,37.7,-0.0860346107954208,0.005575298723795199,-0.004522214097765178,0.000102114505111888,-0.0017706909084629335,-0.03001622799389655,0.0001751387377682621,93.91417985739074,-30.886140212428156,82.3226757642419
1.656000000000006,0,0,0,-43.819213,172.65567,0.0,A,3,1,13,12.6,10.0,-0.084,0.997,-0.08,-1.3,-4.0,0.7,101441,27.7,28.9,0,4.11,70.8,-0.0860346107954208,0.005476128374741935,-0.006297540937100785,0.00013007319743865462,-0.0021961230536667545,-0.0409968455795116,0.0009432089553021484,93.94480156976462,-31.071951396641172,82.34675194951726
1.7059999999999889,0,0,0,-43.819213,172.65567,0.0,A,3,1,13,12.6,10.0,-0.068,0.998,-0.057,-0.6,0.9,0.7,101441,27.7,28.3,0,4.16,37.3,-0.0860346107954208,0.005563417881955585,-0.00870992293092343,0.00019037767254357122,0.005687703342213945,-0.055498434173427126,0.0014689700488953379,93.9580199425128,-31.25976802742236,82.36974915908296
1.7560000000000002,0,0,0,-43.819213,172.65567,0.0,A,3,1,13,12.6,10.0,-0.047,0.995,-0.084,0.2,4.5,0.4,101442,27.0,28.7,0,4.14,42.9,-0.1720685348458202,0.006135999368687505,-0.011640656339162355,0.00025388890654290234,0.01721555612705763,-0.0617309021561032,0.0010714793110773292,93.93316310965002,-31.204755003677903,82.37747559648511
1.8060000000000116,0,0,0,-43.819213,172.65567,0.0,A,3,1,13,12.6,10.0,-0.05,0.992,-0.113,0.0,2.0,-0.1,101442,27.5,28.7,0,4.11,71.2,-0.1720685348458202,0.0070506398451644645,-0.014617425239037432,0.00028790893525291637,0.019370062932012454,-0.05733985383887277,0.0002893218373229211,93.89776462796686,-30.969348879701514,82.35059123839129
1.8559999999999945,0,0,0,-43.819213,172.65567,0.0,A,3,1,13,12.6,10.0,-0.066,0.992,-0.123,-0.5,-5.1,-0.1,101442,27.5,28.2,0,4.14,48.4,-0.1720685348458202,0.007816534334438439,-0.017356499422504466,0.0002948616869208396,0.01126571663895694,-0.05222311349984589,-1.1211770605897519e-05,93.91059111587114,-30.854505416794932,82.3088399697907
1.906000000000006,0,0,0,-43.819213,172.65567,0.0,A,3,1,13,12.6,10.0,-0.096,0.994,-0.092,-1.0,-3.5,0.2,101442,27.0,28.7,0,4.14,47.1,-0.1720685348458202,0.00814950657058775,-0.020143527170340406,0.00030300012112588416,0.002053172807012468,-0.059257996413566334,0.00033674913880760664,93.97889814296556,-31.09144080938025,82.26352474979008
1.9559999999999889,0,0,0,-43.819213,172.65567,0.0,A,3,1,13,12.6,10.0,-0.077,0.998,-0.083,-0.9,3.0,0.7,101442,27.7,28.7,0,4.15,44.3,-0.1720685348458202,0.008200766449977677,-0.02345814614986135,0.00034497218003865464,-2.7776314147124302e-06,-0.07332676276731676,0.0013421332177037844,94.01750771036049,-31.25109920412156,82.2583784487147
2.0060000000000002,0,0,0,-43.819213,172.65567,0.0,A,3,1,13,12.6,10.0,-0.062,0.997,-0.101,-0.9,2.1,1.3,101443,27.5,28.7,0,4.12,74.5,-0.258101772141013,0.008209753850935376,-0.02726837211001986,0.00044853872763795104,0.0003622736697226423,-0.07908227563898887,0.002800528686267128,93.97605750384345,-31.092076455065147,82.28967116749607
2.0560000000000116,0,0,0,-43.819213,172.65567,0.0,A,3,1,13,12.6,10.0,-0.054,0.993,-0.107,-1.0,-0.3,0.8,101443,27.5,28.7,0,4.14,47.5,-0.258101772141013,0.008176719673857661,-0.031177025544066532,0.0006006520037256995,-0.0016836407528309138,-0.07726386172284243,0.003284002357241426,93.90711796504141,-30.98163865507185,82.33505363585697
2.1069999999999993,0,0,0,-43.819213,172.65567,0.0,A,3,1,13,12.6,10.0,-0.049,0.995,-0.089,-0.8,-3.0,0.3,101443,27.2,28.7,0,4.15,40.5,-0.258101772141013,0.00813786523116831,-0.03504494976710206,0.0007556928662775171,0.00015993711795400743,-0.07441944114133256,0.0027960314683215144,93.8854104715584,-30.986869111241685,82.3613634218523
2.1699999999999875,0,0,0,-43.819213,172.65567,0.0,A,3,1,13,12.6,10.0,-0.066,0.994,-0.1,-0.5,-2.6,-0.1,101443,27.2,28.7,0,4.11,68.0,-0.258101772141013,0.008214351373369603,-0.03975406049646051,0.000922644493592026,0.002268194380500168,-0.07507613756848755,0.0025040201924575404,93.92143923684313,-31.157724919403645,82.34886408477324
2.210000000000008,0,0,0,-43.819213,172.65567,0.0,A,3,1,13,12.6,10.0,-0.079,0.994,-0.076,-0.6,-1.5,-0.1,101444,27.2,28.6,0,4.11,70.3,-0.3441343227217392,0.008314788214132838,-0.04288897441819777,0.0010171336686370567,0.002753647657659035,-0.08166955851829527,0.0022204385597915806,93.96043517045089,-31.24820666769004,82.32053176867608
2.258999999999986,0,0,0,-43.819213,172.65567,0.0,A,3,1,13,12.6,10.0,-0.091,0.994,-0.112,-0.4,1.5,0.5,101444,27.5,28.6,0,4.17,41.9,-0.3441343227217392,0.008331610415198818,-0.04717188123972495,0.0011331496767634118,-0.002067027205986087,-0.09314296480942258,0.002514908710674,93.99986213887975,-31.3056126368192,82.29500347632789
2.3089999999999975,0,0,0,-43.819213,172.65567,0.0,A,3,1,13,12.6,10.0,-0.085,0.992,-0.101,-0.9,2.0,1.2,101444,27.7,28.7,0,4.16,39.6,-0.3441343227217392,0.007958106273415849,-0.052072573079468464,0.001271447594657631,-0.01287313846532931,-0.1028847087802735,0.0030170080050935144,93.98179160477528,-31.219559746429503,82.28921933760061
2.359000000000009,0,0,0,-43.819213,172.65567,0.0,A,3,1,13,12.6,10.0,-0.055,0.995,-0.113,-1.4,0.7,1.2,101444,27.7,28.3,0,4.15,43.3,-0.3441343227217392,0.007152320896638437,-0.057275909709366,0.0014284431994424696,-0.0193582766057598,-0.10524875641558071,0.003262816186298602,93.91932599905475,-31.113410064201705,82.33138492009861
2.408999999999992,0,0,0,-43.819213,172.65567,0.0,A,3,1,13,12.6,10.0,-0.036,0.997,-0.081,-1.5,-2.8,0.6,101444,27.2,28.3,0,4.15,36.8,-0.3441343227217392,0.006276763610062164,-0.062411279388966685,0.0015985928277677237,-0.01566401485730307,-0.10016603076851653,0.003543168946713887,93.86710997597875,-31.071635244366956,82.39318835844472
2.459000000000003,0,0,0,-43.819213,172.65567,0.0,A,3,1,13,12.6,10.0,-0.045,0.997,-0.081,-0.7,-2.6,0.2,101441,27.7,28.9,0,4.14,40.1,-0.0860346107954208,0.0057759742221033285,-0.0673415636567486,0.0017723033054699857,-0.004367560661045827,-0.09704533994271496,0.003405250161375014,93.8766558188797,-31.19932748578848,82.42809050217497
2.508999999999986,0,0,0,-43.819213,172.65567,0.0,A,3,1,13,12.6,10.0,-0.057,0.996,-0.083,-0.7,-2.5,-0.4,101441,27.7,28.7,0,4.11,71.7,-0.0860346107954208,0.005758852855302182,-0.07221437762666104,0.0019417385499007898,0.0036827059889997012,-0.09786721885384918,0.0033721596158594568,93.90783810302136,-31.314470221711545,82.41174870407887
2.5589999999999975,0,0,0,-43.819213,172.65567,0.0,A,3,1,13,12.6,10.0,-0.082,0.989,-0.092,-0.4,-0.3,0.0,101441,27.5,28.7,0,4.15,43.8,-0.0860346107954208,0.005966508773268241,-0.07727893474141519,0.002080631518296784,0.004623530729640778,-0.10471506573627064,0.002183559119979043,93.97316753795619,-31.420674732091584,82.37758094207224
2.609000000000009,0,0,0,-43.819213,172.65567,0.0,A,3,1,13,12.6,10.0,-0.086,0.992,-0.107,-0.4,0.1,0.4,101441,27.5,28.7,0,4.14,38.7,-0.0860346107954208,0.006006185253207663,-0.08275396529686821,0.0021605211475805874,-0.0030364715320642492,-0.11428615648180061,0.001012026051372376,93.99824331025972,-31.420482234712395,82.34934649187393
2.658999999999992,0,0,0,-43.819213,172.65567,0.0,A,3,1,13,12.6,10.0,-0.07,0.995,-0.113,-0.8,1.8,0.7,101441,27.5,28.7,0,4.11,73.1,-0.0860346107954208,0.00560053299779651,-0.08857728418018673,0.0022265244406563384,-0.013189618684387382,-0.11864659885101995,0.0016281056716585685,93.99696834666678,-31.403125290942413,82.3348489396915
2.709000000000003,0,0,0,-43.819213,172.65567,0.0,A,3,1,13,12.6,10.0,-0.058,0.997,-0.111,-1.3,-1.3,0.7,101442,27.5,28.7,0,4.12,64.3,-0.1720685348458202,0.004759565287157069,-0.09446298329532313,0.0023459697662625034,-0.02044908974118262,-0.11678136575438205,0.0031497073525869456,93.96502923250682,-31.303523667843443,82.35630527362241
2.758999999999986,0,0,0,-43.819213,172.65567,0.0,A,3,1,13,12.6,10.0,-0.062,0.995,-0.081,-1.3,-3.7,0.9,101442,27.0,27.9,0,4.14,40.1,-0.1720685348458202,0.003742437334344072,-0.10031763495844143,0.002519584924898189,-0.020236028371351154,-0.11740470077042993,0.0037948989928428406,93.95723740733453,-31.35753767413666,82.39019477782698
2.8089999999999975,0,0,0,-43.819213,172.65567,0.0,A,3,1,13,12.6,10.0,-0.041,0.995,-0.082,-1.2,-1.9,0.1,101442,27.0,29.0,0,4.15,39.1,-0.1720685348458202,0.002931896320545196,-0.10620545440269884,0.002690011452494027,-0.012185612180596519,-0.1181080769998129,0.0030221621109891342,93.95637180565737,-31.531816793378898,82.4204842956953
2.859000000000009,0,0,0,-43.819213,172.65567,0.0,A,3,1,13,12.6,10.0,-0.055,0.994,-0.084,-1.0,-0.1,-0.4,101442,27.7,29.0,0,4.1,51.7,-0.1720685348458202,0.002524491858241061,-0.1120771519909872,0.002815038707792817,-0.004110566311565186,-0.11675982653166798,0.0019789281009613253,93.98804960398765,-31.611608052906405,82.42873684911714
2.908999999999992,0,0,0,-43.819213,172.65567,0.0,A,3,1,13,12.6,10.0,-0.06,0.993,-0.103,-0.9,-4.1,-0.3,101442,27.2,28.4,0,4.14,48.4,-0.1720685348458202,0.0023494683307792165,-0.11790435834976505,0.0028948742332372216,-0.0028903747869109724,-0.11632842781952576,0.0012144929168159463,94.03490519510171,-31.598888547537555,82.41901947826946
2.959000000000003,0,0,0,-43.819213,172.65567,0.0,A,3,1,13,12.6,10.0,-0.071,0.996,-0.094,-1.1,-2.3,-0.4,101443,27.2,28.6,0,4.15,48.9,-0.258101772141013,0.002135625118961676,-0.12375026475548881,0.002960432523288948,-0.005663353685788703,-0.11750782840937138,0.001407838685252516,94.10704131178707,-31.78506199456097,82.39096049181504
3.008999999999986,0,0,0,-43.819213,172.65567,0.0,A,3,1,13,12.6,10.0,-0.089,0.993,-0.09,-1.4,1.4,-0.1,101443,27.5,28.6,0,4.11,72.2,-0.258101772141013,0.001758123250919748,-0.12983564216328827,0.0030390766702763725,-0.009436721035893561,-0.1259072679026899,0.001737927194245546,94.17116155639283,-31.881344311235008,82.37697832325283
3.0589999999999975,0,0,0,-43.819213,172.65567,0.0,A,3,1,13,12.6,10.0,-0.084,0.995,-0.094,-1.3,-3.4,0.5,101443,27.5,28.6,0,4.15,45.2,-0.258101772141013,0.001148142514088972,-0.1363991205881834,0.0031331533848743993,-0.014962508437331937,-0.13663186909305614,0.0020251413896746643,94.1889334609104,-31.796248162884787,82.402441041439
3.115000000000009,0,0,0,-43.819213,172.65567,0.0,A,3,1,13,12.6,10.0,-0.07,0.993,-0.076,-1.0,-1.5,1.0,101443,27.5,28.7,0,4.15,36.4,-0.258101772141013,0.0002983050848514232,-0.14431175816201575,0.003236609863227564,-0.015388828321145659,-0.1459623299723257,0.0016697328372233108,94.21146497780083,-31.971830313878762,82.42395834808264
3.1680000000000064,0,0,0,-43.81921,172.65567,0.0,A,3,1,13,12.6,10.0,-0.06,0.995,-0.07,-0.8,5.9,0.4,101443,27.5,28.9,0,4.14,42.4,-0.258101772141013,-0.0003092687114800585,-0.15222708248490863,0.0032906238355722285,-0.00753848474796804,-0.1527291539104398,0.000368530270122615,94.18612599352556,-32.0416771825947,82.4531167319699
3.209000000000003,0,0,0,-43.81921,172.65567,0.0,A,3,1,13,12.6,10.0,-0.071,0.994,-0.08,-0.1,0.7,0.6,101444,27.7,28.9,0,4.11,69.8,-0.3441343227217392,-0.0005115297899619001,-0.15859341206295763,0.0032909598325761404,-0.0023279093243176816,-0.15782350843343745,-0.0003521401723708146,94.14837414791332,-31.79169637227752,82.47704275913829
3.258999999999986,0,0,0,-43.81921,172.65567,0.0,A,3,1,13,12.6,10.0,-0.072,0.996,-0.077,0.5,-3.9,0.9,101444,27.7,28.6,0,4.12,70.3,-0.3441343227217392,-0.0005408864080222435,-0.16668463543417267,0.003265879769244472,0.001153644601903545,-0.16582542641527404,-0.0006510623608962537,94.1308517083014,-31.745907098393825,82.45610615660397
3.3089999999999975,0,0,0,-43.81921,172.65567,0.0,A,3,1,13,12.6,10.0,-0.072,0.996,-0.079,0.4,1.7,0.9,101444,27.5,28.6,0,4.16,35.4,-0.3441343227217392,-0.00038680970805030014,-0.1751908800208193,0.003237693330562993,0.005009423396972785,-0.17442435705051387,-0.0004763951863626536,94.13146047392527,-31.93009864959926,82.39562298127362
3.359000000000009,0,0,0,-43.81921,172.65567,0.0,A,3,1,13,12.6,10.0,-0.076,0.991,-0.11,0.4,4.0,1.3,101444,27.5,28.5,0,4.12,68.9,-0.3441343227217392,-0.0002191003207553967,-0.18405033779313337,0.0032082956227216693,0.0016989520948218267,-0.1799539538419684,-0.0006995131272900353,94.0885161954741,-31.83676292603525,82.36314380776629
3.408999999999992,0,0,0,-43.81921,172.65567,0.0,A,3,1,13,12.6,10.0,-0.055,0.994,-0.112,0.4,11.2,1.5,101444,27.5,28.9,0,4.15,37.7,-0.3441343227217392,-0.0003275559956174295,-0.19300681519876914,0.0031685305746954047,-0.006037179089304618,-0.17830514238358433,-0.0008910887937610921,94.00431088125548,-31.632122431009037,82.35227240837169
3.459000000000003,0,0,0,-43.81921,172.65567,0.0,A,3,1,13,12.6,10.0,-0.066,0.996,-0.143,-1.3,-0.5,0.8,101442,27.5,28.9,0,4.14,41.5,-0.1720685348458202,-0.0009543115550118353,-0.20174961982615486,0.0031658388607036145,-0.01903304328646592,-0.17140704271176474,0.0007834202340895126,93.85285744594208,-31.071999215462725,82.37591185123951
3.508999999999986,0,0,0,-43.81921,172.65567,0.0,A,3,1,13,12.6,10.0,-0.02,0.996,-0.092,-2.0,-7.3,0.2,101442,27.5,28.7,0,4.14,38.7,-0.1720685348458202,-0.0020170974047736554,-0.2100433409841707,0.00323496163510114,-0.023478390704021378,-0.16034180360898295,0.0019814907418124407,93.83309437123752,-31.087023975929256,82.41595204076107
3.5589999999999975,0,0,0,-43.81921,172.65567,0.0,A,3,1,13,12.6,10.0,-0.077,0.995,-0.068,-1.3,-2.4,-0.1,101442,27.5,28.4,0,4.14,42.4,-0.1720685348458202,-0.0029575945302990863,-0.21807173213608422,0.003317145325427471,-0.014141494316987304,-0.16079384246748438,0.001305856871240053,93.90046419453158,-31.435123115937788,82.44582903131433
3.609000000000009,0,0,0,-43.81921,172.65567,0.0,A,3,1,13,12.6,10.0,-0.087,0.992,-0.077,-1.2,0.6,-0.9,101442,27.2,28.4,0,4.15,39.6,-0.1720685348458202,-0.0035761425635495933,-0.226507236014588,0.0033562394715689324,-0.01060042701302735,-0.17662631267259024,0.0002579089744180487,93.94755187816088,-31.538394577621382,82.45107300688797
3.658999999999992,0,0,0,-43.81921,172.65567,0.0,A,3,1,13,12.6,10.0,-0.06,1.0,-0.06,-1.2,0.7,-0.7,101442,27.7,28.9,0,4.14,41.9,-0.1720685348458202,-0.003918267870456052,-0.2356593742368822,0.003362866379359688,-0.003084585263235685,-0.18945921621930284,7.16733721226959e-06,94.01803917685376,-31.48770674502052,82.43906775383701
3.709000000000003,0,0,0,-43.81921,172.65567,0.0,A,3,1,13,12.6,10.0,-0.102,0.993,-0.084,-0.7,1.7,0.1,101436,27.7,28.9,0,4.11,68.4,0.3441453109527267,-0.003965416216760879,-0.2454961213310543,0.0033730971494940493,0.0011986514110430653,-0.20401066754749156,0.0004020634681620773,94.07608497818805,-31.43336953828372,82.43361094990483
3.758999999999986,0,0,0,-43.81921,172.65567,0.0,A,3,1,13,12.6,10.0,-0.096,0.991,-0.098,-0.5,-2.2,0.8,101436,27.7,28.9,0,4.15,39.6,0.3441453109527267,-0.004114412067474581,-0.2561199076934007,0.0033837820528962973,-0.00715848543959319,-0.2209407869465103,2.533266792799062e-05,94.07991908126397,-31.334732281282704,82.43145221081377
3.8089999999999975,0,0,0,-43.81921,172.65567,0.0,A,3,1,13,12.6,10.0,-0.064,0.995,-0.097,-0.7,0.8,0.8,101436,27.7,29.1,0,4.11,68.4,0.3441453109527267,-0.004625019697147242,-0.26735091829735746,0.003381224067736226,-0.013265819747308616,-0.22829963721165739,-0.00012765207433082127,94.07320224522898,-31.434006333929176,82.42478813947768
3.859000000000009,0,0,0,-43.81921,172.65567,0.0,A,3,1,13,12.6,10.0,-0.062,0.995,-0.072,-0.2,-4.6,1.2,101436,27.7,28.9,0,4.11,78.7,0.3441453109527267,-0.005196177582082665,-0.2788592268199565,0.0033675988815205084,-0.009580495650103084,-0.23203270369219953,-0.0004173553742977574,94.04332897388983,-31.384586419481277,82.44019449547746
3.908999999999992,0,0,0,-43.81921,172.65567,0.0,A,3,1,13,12.6,10.0,-0.068,0.998,-0.079,0.3,-1.0,1.2,101436,27.7,28.9,0,4.15,43.8,0.3441453109527267,-0.005501703288137172,-0.29063776566433985,0.0033487293304649965,-0.0026405325920813858,-0.23910885008329394,-0.0003374266679229747,94.03188643674918,-31.605448833935135,82.42101032303651
3.959000000000003,0,0,0,-43.81921,172.65567,0.0,A,3,1,13,12.6,10.0,0.008,1.001,-0.138,1.3,10.1,1.6,101441,28.0,29.0,0,4.14,48.9,-0.0860346107954208,-0.005570251599209778,-0.302200836687928,0.0033835864717239148,-0.00010139985082221288,-0.22341399086012712,0.0017317123182793862,93.99260238773874,-31.647894267696348,82.39144814475722
4.008999999999986,0,0,0,-43.81921,172.65567,0.0,A,3,1,13,12.6,10.0,-0.025,0.995,-0.137,-0.8,9.8,-0.1,101441,28.0,28.9,0,4.14,45.7,-0.0860346107954208,-0.005670167871515262,-0.3125916319660688,0.0035229145301714482,-0.003895251041398522,-0.19221782026564674,0.003841410019623859,93.84399987928951,-31.142911276246426,82.36870006955337
4.0589999999999975,0,0,0,-43.81921,172.65567,0.0,A,3,1,13,12.6,10.0,-0.061,0.996,-0.105,-0.1,-8.5,0.7,101441,27.7,28.9,0,4.11,77.3,-0.0860346107954208,-0.006007890467173797,-0.3219100452954377,0.0037430387209536143,-0.00961365278493979,-0.1805187129090242,0.004963557611660774,93.79671051681392,-30.641522319322025,82.3978177842689
4.115000000000009,0,0,0,-43.81921,172.65567,0.0,A,3,1,13,12.6,10.0,-0.062,0.99,-0.1,-1.5,1.1,0.1,101441,27.2,28.3,0,4.14,38.2,-0.0860346107954208,-0.006631693247511976,-0.3320444662669569,0.004006414096787402,-0.012665017941419152,-0.18142489321658536,0.004442705810972552,93.8504279232364,-31.10164378916982,82.33647283137937
4.168000000000006,0,0,0,-43.81921,172.65567,0.0,A,3,1,13,12.6,10.0,-0.066,0.994,-0.101,-1.0,-0.2,0.5,101441,27.2,28.5,0,4.14,41.0,-0.0860346107954208,-0.007376043257202884,-0.34172000592906726,0.004214409419353368,-0.015423661669559927,-0.1836898110140146,0.0034061742858567568,93.85925249568344,-31.028601068720004,82.37414747580952
4.209000000000003,0,0,0,-43.81921,172.65567,0.0,A,3,1,13,12.6,10.0,-0.069,0.994,-0.081,-1.0,-4.1,0.5,101440,27.2,28.5,0,4.11,65.2,0.0,-0.008001449655525267,-0.3493502605566621,0.004348001479804016,-0.015083967516900195,-0.18851773179551765,0.003110511589785126,93.85538329055784,-31.027102768724504,82.38830899897941
4.258999999999986,0,0,0,-43.81921,172.65567,0.0,A,3,1,13,12.6,10.0,-0.07,0.997,-0.073,-0.5,1.2,0.6,101440,27.7,28.6,0,4.14,42.4,0.0,-0.008613369765926254,-0.3590304597091616,0.004497490503862401,-0.009392836899147619,-0.1986902343045946,0.00286904937255234,93.88082938629219,-31.218556979827138,82.38999449828688
4.3089999999999975,0,0,0,-43.81921,172.65567,0.0,A,3,1,13,12.6,10.0,-0.044,0.994,-0.105,-0.6,5.0,0.3,101440,27.7,29.0,0,4.13,65.2,0.0,-0.00898760139385098,-0.36901141372569024,0.004640457024825917,-0.005576428217837971,-0.2005479263564602,0.0028496114659869796,93.85947548502968,-31.14800770969526,82.3908890234365
4.359000000000009,0,0,0,-43.81921,172.65567,0.0,A,3,1,13,12.6,10.0,-0.042,0.993,-0.132,-0.6,-5.7,0.1,101440,27.7,29.0,0,4.15,41.9,0.0,-0.009391271046322312,-0.37875608526126653,0.0047835504862526355,-0.010570357881011665,-0.1892389350665032,0.0028741269910804675,93.82618365048167,-30.887142583984517,82.40288233850289
4.408999999999992,0,0,0,-43.81921,172.65567,0.0,A,3,1,13,12.6,10.0,-0.061,0.993,-0.091,-1.5,-7.3,-0.3,101440,26.7,28.1,0,4.14,41.5,0.0,-0.010024254102877198,-0.3880673370985224,0.004919408314121761,-0.01474896438119241,-0.18321113842386055,0.0025601861236863943,93.88712339012858,-31.155238702092447,82.36631460242744
4.459000000000003,0,0,0,-43.81921,172.65567,0.0,A,3,1,13,12.6,10.0,-0.076,0.994,-0.081,-1.3,-2.0,-0.1,101439,26.7,28.9,0,4.14,45.7,0.0860352975608124,-0.01070826488010934,-0.39740315920714414,0.005027310971749997,-0.012611466708087033,-0.19022174592092347,0.0017559201814420914,93.98404454322376,-31.499944195695644,82.35576005315788
4.508999999999986,0,0,0,-43.81921,172.65567,0.0,A,3,1,13,12.6,10.0,-0.086,0.996,-0.072,-1.5,2.6,-0.2,101439,27.7,28.9,0,4.17,37.7,0.0860352975608124,-0.01126827485883631,-0.4072664343137504,0.0051113301076296845,-0.009788932440999402,-0.2043092583434615,0.0016048452537465272,94.02822850144156,-31.583330522368225,82.3624845747859
4.5589999999999975,0,0,0,-43.81921,172.65567,0.0,A,3,1,13,12.6,10.0,-0.086,0.994,-0.088,-0.9,-2.0,0.5,101439,28.0,29.2,0,4.11,71.2,0.0860352975608124,-0.01175835810885438,-0.4178552742279849,0.005195779790704048,-0.009814397559718994,-0.21924433822582134,0.0017731420692272384,94.04239770890248,-31.438098438911986,82.39491687277572
4.609000000000009,0,0,0,-43.81921,172.65567,0.0,A,3,1,13,12.6,10.0,-0.087,0.993,-0.077,-0.4,0.2,0.9,101439,28.0,28.6,0,4.14,42.9,0.0860352975608124,-0.012283635408933772,-0.4291753244675628,0.005273842854369367,-0.011196694443451886,-0.23355767135719077,0.0013493804773848223,94.05161925937836,-31.52547894765199,82.39993907905435
4.658999999999992,0,0,0,-43.81921,172.65567,0.0,A,3,1,13,12.6,10.0,-0.087,0.996,-0.056,0.2,0.1,1.5,101439,27.5,28.6,0,4.15,45.2,0.0860352975608124,-0.012715358532004908,-0.44132136079828704,0.005324455393573226,-0.006072230479399466,-0.2522837818719451,0.0006751210907702239,94.02051984729152,-31.506471019944676,82.40103382568883
4.709000000000003,0,0,0,-43.81921,172.65567,0.0,A,3,1,13,12.6,10.0,-0.093,0.985,-0.038,0.4,13.4,1.0,101439,27.5,28.6,0,4.14,39.6,0.0860352975608124,-0.012712356685442811,-0.45457146080864774,0.005271393142644385,0.006192304341883311,-0.2777202185423619,-0.002797611127923364,93.95532345810537,-31.496391466383752,82.3899381944332
4.758999999999986,0,0,0,-43.81921,172.65567,0.0,A,3,1,13,12.6,10.0,-0.066,0.997,-0.129,-0.1,-4.4,0.9,101439,27.5,28.9,0,4.15,42.4,0.0860352975608124,-0.012402536340360001,-0.46877244814220853,0.0050862219251726565,0.006200509461433307,-0.29031927480026387,-0.004609237570948295,93.81652205876293,-30.823854047225712,82.40659764113603
4.8089999999999975,0,0,0,-43.81921,172.65567,0.0,A,3,1,13,12.6,10.0,-0.044,0.992,-0.082,-0.7,-1.0,0.2,101439,27.7,28.7,0,4.14,49.8,0.0860352975608124,-0.012153887275534445,-0.48322032898592954,0.004861393373843074,0.0037454531315867083,-0.2875959589484454,-0.004383904482232959,93.82111744579518,-31.03282501793855,82.37407372226296
4.859000000000009,0,0,0,-43.81921,172.65567,0.0,A,3,1,13,12.6,10.0,-0.057,0.993,-0.125,-1.2,3.4,-0.4,101439,27.5,28.7,0,4.11,77.7,0.0860352975608124,-0.011979131639758061,-0.4974966063283244,0.004617962538175835,0.003244772299467052,-0.2834551347472184,-0.005353328944454371,93.83995109277375,-31.068652586387717,82.36419733937406
4.908999999999992,0,0,0,-43.81921,172.65567,0.0,A,3,1,13,12.6,10.0,-0.074,0.995,-0.086,-1.0,-6.6,-0.1,101439,27.5,28.4,0,4.11,78.7,0.0860352975608124,-0.011941980512294406,-0.5117059737970574,0.004357328149703054,-0.0017587272009203661,-0.28491956400229446,-0.005072046594460439,93.85938628245684,-30.882445621212174,82.37903252846355
4.959000000000003,0,0,0,-43.81921,172.65567,0.0,A,3,1,13,12.6,10.0,-0.081,0.993,-0.079,-1.2,-5.8,0.2,101439,27.0,28.6,0,4.14,51.2,0.0860352975608124,-0.011991827077758197,-0.5262507843159429,0.004091767239672534,-0.00023513541763086525,-0.29687285675299335,-0.005550389806757953,93.93898321812054,-31.1937971355238,82.35282948884984
5.008999999999986,0,0,0,-43.81921,172.65567,0.0,A,3,1,13,12.6,10.0,-0.07,0.994,-0.077,-0.6,2.7,0.8,101439,27.5,28.6,0,4.15,45.2,0.0860352975608124,-0.011909446033264326,-0.5413886543302433,0.003789652250109482,0.0035303771973868273,-0.30864194381923005,-0.006534209775768264,93.99528630567009,-31.467483248046733,82.34839110543385
5.0589999999999975,0,0,0,-43.81921,172.65567,0.0,A,3,1,13,12.6,10.0,-0.062,0.995,-0.097,-0.2,10.2,0.9,101439,27.5,28.6,0,4.11,75.9,0.0860352975608124,-0.011672862290718424,-0.5569560817400594,0.0034544408545296684,0.005932972504447067,-0.31405515257327116,-0.00687424604742123,93.95054027942687,-31.323940708233987,82.36653933204332
5.121000000000009,0,0,0,-43.81921,172.65567,0.0,A,3,1,13,12.5,10.0,-0.051,0.994,-0.123,-0.1,-2.0,0.9,101439,27.5,28.7,0,4.15,39.6,0.0860352975608124,-0.011487294183150105,-0.5762824695558475,0.0030469772115928146,5.309548162663654e-05,-0.3093767124520309,-0.006269742434410248,93.81633118090303,-30.68585310490505,82.40447211991825
5.164999999999992,0,0,0,-43.81921,172.65567,0.0,A,3,1,13,12.5,10.0,-0.067,0.994,-0.095,-1.1,-4.6,0.1,101443,27.5,28.7,0,4.15,40.5,-0.258101772141013,-0.011579292282448713,-0.5898586664226985,0.0027762059769772785,-0.004234827267928689,-0.30772314513234617,-0.0060380409572098614,93.80409270312673,-30.76507701813637,82.38418246710808
5.211999999999989,0,0,0,-43.81921,172.65567,0.0,A,3,1,13,12.5,10.0,-0.048,0.994,-0.106,-1.0,-0.5,0.4,101443,27.5,29.0,0,4.14,40.5,-0.258101772141013,-0.011798463036734664,-0.6043112438121425,0.002488235850928808,-0.005091587808069781,-0.30728014803552517,-0.006216006959747109,93.85331618507828,-30.96584087116888,82.37757728375539
5.2620000000000005,0,0,0,-43.81921,172.65567,0.0,A,3,1,13,12.5,10.0,-0.095,0.994,-0.089,-1.1,1.4,0.3,101443,28.0,28.2,0,4.14,43.3,-0.258101772141013,-0.012135252327262574,-0.6198232895148841,0.0021790571210619568,-0.008379983813043524,-0.31320168007399674,-0.006151142234924128,93.85669907516369,-30.978218499264344,82.39067433746087
5.312000000000012,0,0,0,-43.81921,172.65567,0.0,A,3,1,13,12.5,10.0,-0.078,0.991,-0.07,-1.0,-2.7,0.5,101443,27.0,28.2,0,4.14,41.5,-0.258101772141013,-0.012548142609451682,-0.6359011043680705,0.0018439005486090457,-0.008135627474517059,-0.3299109140533144,-0.007255120663189263,93.85120987340407,-30.89577002306234,82.41333426535277
5.361999999999995,0,0,0,-43.81921,172.65567,0.0,A,3,1,13,12.5,10.0,-0.053,0.996,-0.082,-0.4,3.2,0.6,101443,27.0,28.6,0,4.15,39.6,-0.258101772141013,-0.012781510784870786,-0.6526138569416577,0.0014467415335208014,-0.0011990995422502954,-0.33859918889040735,-0.008631239940345922,93.86573136474217,-31.017847103138507,82.42070248062973
5.412000000000006,0,0,0,-43.81921,172.65567,0.0,A,3,1,13,12.5,10.0,-0.051,0.994,-0.1,0.1,2.2,0.5,101441,27.5,28.2,0,4.11,67.1,-0.0860346107954208,-0.012738101739527089,-0.6695261008522746,0.0010074560054107356,0.0029354613559977845,-0.33789056753411373,-0.00894018118405272,93.82910647562846,-30.848160977619177,82.42436694794925
5.461999999999989,0,0,0,-43.81921,172.65567,0.0,A,3,1,13,12.5,10.0,-0.054,0.994,-0.115,-0.6,-1.6,0.1,101441,27.2,28.2,0,4.15,45.2,-0.0860346107954208,-0.01266035880724884,-0.6863114130361895,0.0005606969300962884,0.00017425593513322466,-0.3335219198227092,-0.008930181828531262,93.80595114784123,-30.727383097160736,82.39605718685114
5.5120000000000005,0,0,0,-43.81921,172.65567,0.0,A,3,1,13,12.5,10.0,-0.066,0.996,-0.088,-0.9,-2.7,0.1,101441,27.2,28.8,0,4.15,40.5,-0.0860346107954208,-0.012698927708173834,-0.7029969981455921,0.00012466374147851488,-0.0017170119721326195,-0.3339014845532463,-0.008511145716175714,93.83510830836235,-30.792288419504228,82.3759829834992
5.562000000000012,0,0,0,-43.81921,172.65567,0.0,A,3,1,13,12.5,10.0,-0.102,0.993,-0.093,-1.2,-1.2,0.5,101441,28.0,28.7,0,4.15,44.3,-0.0860346107954208,-0.012867607771544783,-0.7200173163301111,-0.000292739321127473,-0.005030190562703786,-0.34691124282735736,-0.008184976788060006,93.87281791017102,-30.911700433381405,82.36648260908042
5.611999999999995,0,0,0,-43.81921,172.65567,0.0,A,3,1,13,12.5,10.0,-0.088,0.993,-0.091,-1.2,-1.1,1.0,101441,27.5,28.7,0,4.14,41.5,-0.0860346107954208,-0.01329171602719944,-0.7377889152626773,-0.0007024165029087525,-0.011934139663488233,-0.36395271447553457,-0.008202110483196762,93.87583540266029,-30.959431702108855,82.38976934997746
5.662000000000006,0,0,0,-43.81921,172.65567,0.0,A,3,1,13,12.5,10.0,-0.04,0.996,-0.099,-1.0,1.5,1.0,101441,27.5,28.7,0,4.14,39.6,-0.0860346107954208,-0.013901169499825174,-0.7560675172062025,-0.0011130557324088009,-0.012443999241535626,-0.36719136326530405,-0.008223458696801434,93.84914898024273,-31.005510672142282,82.4283448309041
5.711999999999989,0,0,0,-43.81921,172.65567,0.0,A,3,1,13,12.5,10.0,-0.042,0.999,-0.094,-0.8,2.7,0.5,101441,27.5,28.7,0,4.15,39.6,-0.0860346107954208,-0.014409424101293613,-0.7742608954341605,-0.0015026533144790577,-0.007886184817208847,-0.3605437658532695,-0.007360444586014154,93.80250591432761,-30.92270188440234,82.46718069686861
5.7620000000000005,0,0,0,-43.81921,172.65567,0.0,A,3,1,13,12.5,10.0,-0.058,0.996,-0.086,-0.6,-1.5,-0.1,101441,27.5,28.7,0,4.11,74.0,-0.0860346107954208,-0.01468239384616021,-0.7922620180848561,-0.0018504935511637448,-0.0030326049774525117,-0.35950114017438617,-0.006553164881370166,93.77568553843639,-30.777116325210553,82.48577190784987
5.812000000000012,0,0,0,-43.81921,172.65567,0.0,A,3,1,13,12.5,10.0,-0.074,0.99,-0.08,-0.4,-1.6,-0.2,101441,27.2,28.4,0,4.15,47.1,-0.0860346107954208,-0.01474523581543164,-0.8104221232431872,-0.002209932288740924,0.0005189262065959052,-0.36690306615869156,-0.007824384621713733,93.81552197720508,-30.835792754990376,82.46020804094874
5.861999999999995,0,0,0,-43.81921,172.65567,0.0,A,3,1,13,12.5,10.0,-0.081,0.993,-0.088,0.0,2.0,0.2,101441,27.2,28.6,0,4.14,46.6,-0.0860346107954208,-0.014710436476135067,-0.8290610985608615,-0.002641871839949386,0.0008730473652674826,-0.3786559465485363,-0.009453197426630644,93.8619629172388,-30.898748685924126,82.42121942039336
5.912000000000006,0,0,0,-43.81921,172.65567,0.0,A,3,1,13,12.5,10.0,-0.063,0.993,-0.111,0.0,1.3,0.9,101440,27.7,28.6,0,4.11,68.4,0.0,-0.014776094970124732,-0.848131488157678,-0.0031222843030330296,-0.003499387124853486,-0.3841596373239497,-0.009763301096710733,93.8576378547288,-30.78590234459666,82.38827473897966
5.961999999999989,0,0,0,-43.81921,172.65567,0.0,A,3,1,13,12.5,10.0,-0.062,0.997,-0.114,-1.0,6.0,1.0,101440,27.2,28.4,0,4.14,48.0,0.0,-0.01512767322028603,-0.867302667089976,-0.003584945799621888,-0.010563742881603251,-0.38268751996823364,-0.00874315876684992,93.81829589791275,-30.71238915442675,82.373227466445
6.0120000000000005,0,0,0,-43.81921,172.65567,0.0,A,3,1,13,12.5,10.0,-0.072,0.996,-0.091,-1.5,-4.1,0.9,101440,27.2,28.5,0,4.14,49.4,0.0,-0.01575463274602489,-0.8865213869102055,-0.003987339071343071,-0.014514638147945437,-0.38606127284077213,-0.007352572101993706,93.73721871678795,-30.4065894030725,82.42928786397125
6.062000000000012,0,0,0,-43.81921,172.65567,0.0,A,3,1,13,12.5,10.0,-0.022,0.995,-0.095,-1.2,-2.2,0.6,101440,27.2,28.5,0,4.14,48.4,0.0,-0.016364346406992802,-0.9057613271075283,-0.004357657446168715,-0.009873908290765527,-0.3835363350519625,-0.007460162891028703,93.7392590397631,-30.600694408047826,82.46809016218438
6.126000000000005,0,0,0,-43.81921,172.65567,0.0,A,3,1,13,12.5,10.0,-0.086,0.995,-0.072,-0.5,2.0,-0.1,101440,27.5,28.6,0,4.14,40.5,0.0,-0.016731327332607255,-0.9304153292099936,-0.004860044407617905,-0.0015942456346874252,-0.3869012306501609,-0.008239429654260208,93.74533899895553,-30.726083532369834,82.49678200324773
6.167000000000002,0,0,0,-43.81921,172.65567,0.0,A,3,1,13,12.5,10.0,-0.035,0.992,-0.121,0.1,2.9,0.4,101438,27.5,28.6,0,4.13,44.3,0.1720712818972014,-0.016809054706255266,-0.9463118114033519,-0.00520694642973378,-0.0021973335676548265,-0.3885369251234714,-0.008682620205052121,93.75613727789901,-30.631937468095472,82.4829395416093
6.215000000000003,0,0,0,-43.81921,172.65567,0.0,A,3,1,13,12.5,10.0,-0.037,0.996,-0.106,-0.1,0.4,0.8,101438,27.7,28.6,0,4.14,39.6,0.1720712818972014,-0.016948510702586413,-0.9646744944203817,-0.005627373610431719,-0.0036133329461426984,-0.37657486725274014,-0.008835178990694668,93.7345119856606,-30.482031892396805,82.45537818138848
6.264999999999986,0,0,0,-43.81921,172.65567,0.0,A,3,1,13,12.5,10.0,-0.061,0.997,-0.093,-0.8,0.7,0.4,101438,27.7,28.9,0,4.11,72.2,0.1720712818972014,-0.017091937746460565,-0.9834241052332794,-0.006050459406506926,-0.002123748808825293,-0.3734095652634262,-0.008088252852319419,93.70799623179045,-30.452431988406826,82.4386608317574
6.314999999999998,0,0,0,-43.81921,172.65567,0.0,A,3,1,13,12.5,10.0,-0.047,0.995,-0.123,-1.1,-0.6,0.5,101438,27.7,28.9,0,4.15,36.8,0.1720712818972014,-0.017280493507874427,-1.0020190529209507,-0.0064285080706485845,-0.005418481647727503,-0.3703883422432601,-0.0070336937133434595,93.70219369728807,-30.40533376151403,82.44643758814452
6.365000000000009,0,0,0,-43.81921,172.65567,0.0,A,3,1,13,12.5,10.0,-0.072,0.995,-0.091,-1.2,-4.6,0.4,101438,28.0,28.9,0,4.14,41.0,0.1720712818972014,-0.01766123084009763,-1.020526417643346,-0.006763451059365037,-0.009811011641197187,-0.3699062466523833,-0.006364025835311597,93.70055231980825,-30.423328158408577,82.46710648968497
6.414999999999992,0,0,0,-43.81921,172.65567,0.0,A,3,1,13,12.5,10.0,-0.079,0.993,-0.065,-1.6,-0.8,-0.2,101437,27.7,28.7,0,4.14,40.1,0.2581079530244445,-0.01806340204462872,-1.039354848700902,-0.007101028032565065,-0.006275836540051899,-0.38323099565011565,-0.007139053092694098,93.73508332218114,-30.638942413082827,82.47440243912078
6.465000000000003,0,0,0,-43.81921,172.65567,0.0,A,3,1,13,12.5,10.0,-0.058,0.993,-0.099,-0.9,-2.9,0.2,101437,27.7,28.4,0,4.11,72.2,0.2581079530244445,-0.01829325689008436,-1.0587409183824048,-0.007489486584592251,-0.0029183572781716675,-0.3922117916098241,-0.008399288988389845,93.7752815506086,-30.66227366504721,82.49874727424117
6.514999999999986,0,0,0,-43.81921,172.65567,0.0,A,3,1,13,12.5,10.0,-0.077,0.995,-0.085,-0.9,-3.1,0.2,101437,27.5,28.4,0,4.15,42.4,0.2581079530244445,-0.01845522247730065,-1.0784938949033576,-0.007917268207590124,-0.003560266210482153,-0.39790726922855224,-0.00871197593153091,93.8083942444689,-30.79232281977151,82.49166620344664
6.564999999999998,0,0,0,-43.81921,172.65567,0.0,A,3,1,13,12.5,10.0,-0.079,0.997,-0.069,-0.8,-2.0,0.1,101437,27.7,28.8,0,4.14,42.4,0.2581079530244445,-0.01855685296728507,-1.0987304300707936,-0.008346644205955224,-0.0005049533888937638,-0.4115541374687024,-0.008463064003069194,93.84309641097461,-30.932282390683593,82.48370274619026
6.615000000000009,0,0,0,-43.81921,172.65567,0.0,A,3,1,13,12.5,10.0,-0.087,0.994,-0.093,-0.6,-0.2,0.6,101437,27.7,28.7,0,4.11,72.2,0.2581079530244445,-0.018580003111422282,-1.1196702124971052,-0.00876126136968644,-0.00042105237659450313,-0.4260371595835732,-0.008121622546175706,93.87525128151474,-31.017055663685085,82.47199190101533
6.664999999999992,0,0,0,-43.81921,172.65567,0.0,A,3,1,13,12.5,10.0,-0.057,0.992,-0.105,-1.0,-0.4,1.0,101434,27.5,28.7,0,4.15,42.9,0.5162220872582411,-0.01872023416810876,-1.141102848998955,-0.009175754914454977,-0.0051881898908663834,-0.4312683004907125,-0.008458119244571363,93.86475279926205,-31.01587710030056,82.4722395603578
6.715000000000003,0,0,0,-43.81921,172.65567,0.0,A,3,1,13,12.5,10.0,-0.063,0.994,-0.104,-1.3,-2.3,0.7,101434,27.5,28.6,0,4.14,41.0,0.5162220872582411,-0.01908327290029158,-1.162639110407279,-0.00960913803802864,-0.009333359396443192,-0.430182155842056,-0.008877205698371258,93.83264203810897,-31.027224926589927,82.50362613222296
6.764999999999986,0,0,0,-43.81921,172.65567,0.0,A,3,1,13,12.5,10.0,-0.07,0.998,-0.067,-1.8,-4.1,0.2,101434,27.5,28.8,0,4.14,45.7,0.5162220872582411,-0.019499360184515983,-1.1843102797608063,-0.010044637178872126,-0.007310131972538616,-0.4366646182993262,-0.00854275993537409,93.832312216356,-31.13079620787562,82.533634347305
6.814999999999998,0,0,0,-43.81921,172.65567,0.0,A,3,1,13,12.5,10.0,-0.022,0.997,-0.123,-1.2,0.2,0.0,101434,28.0,28.8,0,4.14,47.5,0.5162220872582411,-0.019788132694574457,-1.2060221914253906,-0.010448750402209616,-0.00424076842979776,-0.4318118482838487,-0.0076217689981218605,93.87454993049893,-31.320365957225974,82.56657586260262
6.865000000000009,0,0,0,-43.81921,172.65567,0.0,A,3,1,13,12.5,10.0,-0.106,0.999,-0.049,-0.1,-0.4,-0.1,101434,28.0,28.7,0,4.12,44.7,0.5162220872582411,-0.019949784347805033,-1.2277281443441193,-0.010797935582160462,-0.002225297699423865,-0.43642626846510085,-0.006345638199908811,93.8958142316764,-31.29546160921059,82.58036409673619
6.914999999999992,0,0,0,-43.81921,172.65567,0.0,A,3,1,13,12.5,10.0,-0.089,0.99,-0.049,1.7,2.2,1.3,101428,28.0,28.8,0,4.14,47.1,1.03246890067285,-0.01984144720062165,-1.2502481936650351,-0.01114487452484111,0.006558783586760654,-0.4643757043718452,-0.007531919507321856,93.92741802867883,-31.299651601474736,82.5337844274102
6.965000000000003,0,0,0,-43.81921,172.65567,0.0,A,3,1,13,12.5,10.0,-0.031,0.996,-0.08,1.3,19.3,0.7,101428,27.7,28.8,0,4.11,75.4,1.03246890067285,-0.019205603894820757,-1.2736854958738357,-0.01157843627626348,0.018874948645269257,-0.4731163839799607,-0.009810550549568968,93.85796984884777,-31.18407237652565,82.44964187347037
7.014999999999986,0,0,0,-43.81921,172.65567,0.0,A,3,1,13,12.5,10.0,0.0,0.994,-0.201,0.9,0.8,0.7,101428,26.5,27.9,0,4.14,44.7,1.03246890067285,-0.018451964987955635,-1.2966453600672314,-0.012041444910988696,0.011270607629345952,-0.4452781837561787,-0.008709794839445964,93.69259784650788,-30.21705038813673,82.43391380181643
7.064999999999998,0,0,0,-43.81921,172.65567,0.0,A,3,1,13,12.5,10.0,-0.015,0.997,-0.175,-1.8,-9.1,-0.5,101428,26.5,28.6,0,4.14,46.6,1.03246890067285,-0.01851401501031074,-1.317855974836572,-0.012390242506508248,-0.01375260852354964,-0.4031464070172482,-0.005242108981332941,93.66880187253231,-30.166983736378175,82.36571875536796
7.127999999999986,0,0,0,-43.81921,172.65567,0.0,A,3,1,13,12.4,10.0,-0.099,1.0,-0.097,-3.2,-13.1,-0.4,101436,27.5,28.4,0,4.13,39.1,0.3441453109527267,-0.01998237611604034,-1.342908179212177,-0.012571016315284664,-0.03286202975358925,-0.3921616683989353,-0.0004967420909352989,93.82175797664338,-30.712029673509697,82.35732175869832
7.170999999999992,0,0,0,-43.81921,172.65567,0.0,A,3,1,13,12.4,10.0,-0.125,0.996,-0.016,-1.6,-4.5,0.4,101436,27.2,28.4,0,4.14,41.9,0.3441453109527267,-0.021325968504698128,-1.360384208092609,-0.01256958943841602,-0.029630639486298543,-0.4206768841791743,0.0005631084569187295,93.94825632225216,-31.255121099685724,82.39956123925694
7.218999999999994,0,0,0,-43.81921,172.65567,0.0,A,3,1,13,12.4,10.0,-0.085,0.993,-0.034,-0.1,7.8,1.8,101436,27.2,28.9,0,4.14,38.7,0.3441453109527267,-0.022337301015262767,-1.3814394610055225,-0.012591698246000512,-0.012508215120559756,-0.4566253205255233,-0.0014843087729392189,93.98119771940284,-31.45732370386676,82.42546435031255
7.2690000000000055,0,0,0,-43.81921,172.65567,0.0,A,3,1,13,12.4,10.0,-0.089,0.99,-0.062,2.1,19.2,2.4,101436,28.0,28.9,0,4.14,43.8,0.3441453109527267,-0.022649415715374883,-1.4048789554284133,-0.0127418223992174,2.3627116077890378e-05,-0.4809544563898946,-0.004520657355734932,93.83958202857073,-31.06750736311893,82.46879542508978
7.318999999999988,0,0,0,-43.81921,172.65567,0.0,A,3,1,13,12.4,10.0,-0.033,1.0,-0.172,-0.5,2.9,-0.1,101436,28.0,28.9,0,4.14,39.6,0.3441453109527267,-0.02288120350505109,-1.4288682920745366,-0.01293644796598212,-0.009295138703129329,-0.4786190094553597,-0.0032643653148564456,93.5777315177822,-30.116528318969834,82.46189956497426
7.369,0,0,0,-43.81921,172.65567,0.0,A,3,1,13,12.4,10.0,-0.044,0.993,-0.151,-1.5,-14.8,-0.3,101436,28.0,28.9,0,4.14,41.0,0.3441453109527267,-0.0238925633462628,-1.452255070131886,-0.01301173488712431,-0.031159254945329846,-0.45685211283839877,0.0002528884691694747,93.58390882877758,-29.957098886894862,82.44864542508802
7.419000000000011,0,0,0,-43.81921,172.65567,0.0,A,3,1,13,12.4,10.0,-0.049,0.993,-0.109,-3.5,-7.0,-1.0,101436,27.7,28.9,0,4.14,35.9,0.3441453109527267,-0.02571863074368671,-1.4748183036992553,-0.012987202624304152,-0.04188344095160999,-0.44567722985616565,0.000728402043636673,93.7365565559007,-30.673627421405936,82.41143150686781
7.468999999999994,0,0,0,-43.81921,172.65567,0.0,A,3,1,13,12.4,10.0,-0.052,0.992,-0.055,-1.8,-3.8,0.5,101436,27.7,29.0,0,4.11,72.2,0.3441453109527267,-0.027613078816884833,-1.4971327369762482,-0.013000289575155295,-0.033894481976340846,-0.4469001012238561,-0.001251880077682561,93.87048765311626,-30.99898639073283,82.48261774508445
7.5190000000000055,0,0,0,-43.81921,172.65567,0.0,A,3,1,13,12.4,10.0,-0.124,0.996,-0.039,-0.9,-2.0,0.6,101436,27.7,28.6,0,4.15,40.5,0.3441453109527267,-0.02899336027933125,-1.5201008524494954,-0.01310853433011765,-0.021316776521503152,-0.47182451770582823,-0.0030779101208106676,93.89319040120193,-31.175612150961907,82.52573326550551
7.568999999999988,0,0,0,-43.81921,172.65567,0.0,A,3,1,13,12.4,10.0,-0.081,0.997,-0.078,0.2,2.9,1.1,101436,27.5,28.8,0,4.14,42.9,0.3441453109527267,-0.029960079962960528,-1.544388624354952,-0.01325361965525453,-0.01735201082368126,-0.4996863585127667,-0.0027255028846665625,93.8963530852795,-31.26366064901485,82.53393193740614
7.619,0,0,0,-43.81921,172.65567,0.0,A,3,1,13,12.4,10.0,-0.006,1.003,-0.137,1.1,12.3,0.8,101439,28.0,28.8,0,4.14,39.1,0.0860352975608124,-0.030858523487664637,-1.5691459845625377,-0.013322995685205707,-0.01858573016447492,-0.4906080497904379,-4.953831337983815e-05,93.83329890316288,-31.11204092800493,82.5214222581935
7.669000000000011,0,0,0,-43.81921,172.65567,0.0,A,3,1,13,12.4,10.0,-0.021,0.997,-0.138,-1.4,-2.4,-0.5,101439,28.0,28.8,0,4.14,41.0,0.0860352975608124,-0.03193434309558887,-1.5929668240121018,-0.013243830071608707,-0.024447054152484583,-0.4622255281919059,0.003216162857259151,93.7163864124314,-30.492505349860576,82.4911293131444
7.718999999999994,0,0,0,-43.81921,172.65567,0.0,A,3,1,13,12.4,10.0,-0.08,0.994,-0.097,-1.8,-16.9,0.4,101439,27.7,28.9,0,4.15,35.9,0.0860352975608124,-0.033328038538803124,-1.615890833864971,-0.013053729617095259,-0.03130076357610485,-0.454734865923172,0.004387855323281352,93.78594411813523,-30.593192835955964,82.4906192349073
7.7690000000000055,0,0,0,-43.81921,172.65567,0.0,A,3,1,13,12.4,10.0,-0.099,0.987,-0.089,-2.7,1.1,-1.0,101439,28.0,28.9,0,4.14,37.7,0.0860352975608124,-0.03506674373391881,-1.6389826161086405,-0.012867886074611829,-0.038247444228506865,-0.46893642382339884,0.0030458863760541564,93.914422786789,-31.418517957662093,82.47927278854763
7.818999999999988,0,0,0,-43.81921,172.65567,0.0,A,3,1,13,12.4,10.0,-0.03,0.998,-0.08,-2.1,8.2,-1.0,101439,28.0,28.9,0,4.11,76.8,0.0860352975608124,-0.03691393060057713,-1.6625525758429525,-0.012752423152810707,-0.035640030437850946,-0.4738619655494,0.0015726304959922627,93.98686766301128,-31.34246018976397,82.54138728723797
7.869,0,0,0,-43.81921,172.65567,0.0,A,3,1,13,12.4,10.0,-0.016,0.997,-0.066,-0.4,-11.0,0.8,101442,28.5,28.8,0,4.14,48.4,-0.1720685348458202,-0.0382480729075796,-1.685990653092547,-0.012692806330540991,-0.017725661842235948,-0.46366112443417173,0.0008120423947958541,94.00559584694021,-30.91445004233752,82.60154347201834
7.919000000000011,0,0,0,-43.81921,172.65567,0.0,A,3,1,13,12.4,10.0,-0.082,0.997,-0.05,-0.1,-0.5,-0.8,101442,28.0,28.8,0,4.14,46.6,-0.1720685348458202,-0.03869981701163607,-1.7092776514130292,-0.012675169615346453,-0.0003441023200186667,-0.467818808384902,-0.00010657378701448266,94.06501883449545,-31.45001892879102,82.55561413839511
7.968999999999994,0,0,0,-43.81921,172.65567,0.0,A,3,1,13,12.4,10.0,-0.076,0.987,-0.096,0.1,5.9,0.4,101442,28.0,28.6,0,4.11,78.2,-0.1720685348458202,-0.03862901411421378,-1.7329839118787451,-0.012725103961218053,0.0031762182169112452,-0.48043161024405534,-0.0018908000478502153,94.13811968072233,-31.45459418526963,82.48730889941734
8.019000000000005,0,0,0,-43.81921,172.65567,0.0,A,3,1,13,12.4,10.0,-0.103,0.984,-0.133,0.0,3.1,1.0,101442,27.2,28.2,0,4.12,73.1,-0.1720685348458202,-0.038878039969467565,-1.7571669165953971,-0.012888027643629974,-0.013137252427060238,-0.48688857842180366,-0.004626147248625167,94.09247101903956,-31.149730246750508,82.4708637652577
8.069999999999993,0,0,0,-43.81921,172.65567,0.0,A,3,1,13,12.4,10.0,-0.084,0.998,-0.082,0.3,-3.3,2.2,101442,26.7,28.2,0,4.14,40.5,-0.1720685348458202,-0.03990852655906993,-1.7822693560455527,-0.01313089932099833,-0.02727398638088547,-0.49752081178061397,-0.004898232256018521,94.03239278032328,-30.9843546544897,82.46600133169906
8.13300000000001,0,0,0,-43.81921,172.65567,0.0,A,3,1,13,12.5,10.0,0.003,1.012,-0.092,2.0,9.0,3.5,101445,28.2,29.0,0,4.14,38.7,-0.430166186587999,-0.041271991554644824,-1.8133826101161883,-0.013278453039867558,-0.01601061665322684,-0.4902015396678754,0.00021398721255220382,93.93239190530714,-31.189709652336404,82.45443165755884
8.173000000000002,0,0,0,-43.81921,172.65567,0.0,A,3,1,13,12.5,10.0,0.031,0.998,-0.153,-1.3,15.4,0.4,101445,28.2,28.8,0,4.11,71.2,-0.430166186587999,-0.041773218271845665,-1.8323887586308796,-0.013203515073341639,-0.00905071920682026,-0.4601058860668778,0.003532911113744511,93.73341143191345,-30.839197580359148,82.44882815174893
8.222000000000008,0,0,0,-43.81921,172.65567,0.0,A,3,1,13,12.5,10.0,-0.046,0.989,-0.145,0.3,-7.4,1.1,101445,27.5,28.8,0,4.14,37.7,-0.430166186587999,-0.04244053988699668,-1.8541463063812946,-0.013017562191402238,-0.018186897738115312,-0.42795728741933153,0.004057002434801488,93.6185940788503,-30.078922631590356,82.53627415026911
8.271999999999991,0,0,0,-43.81921,172.65567,0.0,A,3,1,13,12.5,10.0,-0.055,0.992,-0.083,-1.9,-2.1,-1.2,101445,27.5,28.7,0,4.14,41.0,-0.430166186587999,-0.043491759458902136,-1.8754052507468286,-0.012850547062683447,-0.02386188513811751,-0.42240048720231776,0.002623602713952384,93.63383015421626,-30.437923478546292,82.47843459792534
8.322000000000003,0,0,0,-43.81921,172.65567,0.0,A,3,1,13,12.5,10.0,-0.073,0.999,-0.083,-0.8,-5.9,-0.2,101445,27.5,28.6,0,4.12,71.2,-0.430166186587999,-0.04457598187996273,-1.8967108817454799,-0.012722380086496173,-0.019507011704296258,-0.42982475274353377,0.002503076333537425,93.74134686035428,-30.519149842635773,82.48373837625135
8.371999999999986,0,0,0,-43.81921,172.65567,0.0,A,3,1,13,12.5,10.0,-0.122,0.99,-0.075,-0.8,-5.7,0.8,101439,27.5,28.6,0,4.14,41.9,0.0860352975608124,-0.04561231126182406,-1.9187472060198285,-0.012593564591549916,-0.021946163570171175,-0.4516282182307094,0.0026495434643146144,93.82042378685561,-30.79526679873418,82.44825483820709
8.421999999999997,0,0,0,-43.81921,172.65567,0.0,A,3,1,13,12.5,10.0,-0.069,0.994,-0.084,-0.2,8.5,1.0,101439,27.5,28.8,0,4.14,36.4,0.0860352975608124,-0.04676797958003743,-1.9418413961241994,-0.012488510217492997,-0.02428056915835324,-0.4721393859439176,0.0015526314979611893,93.84052541129343,-31.068019665437852,82.44276022630213
8.472000000000008,0,0,0,-43.81921,172.65567,0.0,A,3,1,13,12.5,10.0,-0.066,0.993,-0.085,0.6,12.4,1.3,101439,28.0,28.9,0,4.15,38.2,0.0860352975608124,-0.04791530401033655,-1.9656427176963518,-0.012433814656450264,-0.021612408053601158,-0.4799134769419624,0.0006351909437476805,93.7404243644019,-30.638236810473906,82.46893428603133
8.521999999999991,0,0,0,-43.81921,172.65567,0.0,A,3,1,13,12.5,10.0,-0.027,0.995,-0.143,-1.2,-3.7,0.2,101439,27.7,28.9,0,4.12,66.1,0.0860352975608124,-0.049103999883472284,-1.98945214201664,-0.012397347753697475,-0.025935426871844497,-0.47246349586989217,0.0008234851663643635,93.59419661627842,-30.017076889768255,82.4776102350619
8.572000000000003,0,0,0,-43.81921,172.65567,0.0,A,3,1,13,12.5,10.0,-0.042,0.991,-0.127,-2.3,-13.4,-0.5,101439,27.7,28.2,0,4.15,42.4,0.0860352975608124,-0.050654287922535304,-2.0126423319139404,-0.012346407194138107,-0.036076094690662266,-0.4551441000219185,0.0012141372160099535,93.63318778604688,-30.18677453223674,82.48289254383657
8.621999999999986,0,0,0,-43.81921,172.65567,0.0,A,3,1,13,12.5,10.0,-0.056,0.999,-0.077,-1.6,-4.5,-0.7,101435,27.2,28.9,0,4.14,40.1,0.4301833556922331,-0.052457788730277045,-2.0353044057628527,-0.012281851016843079,-0.03606393761903206,-0.45133885393488304,0.001368109875792021,93.7862371634661,-30.832722519857494,82.48502835082874
8.671999999999997,0,0,0,-43.81921,172.65567,0.0,A,3,1,13,12.5,10.0,-0.074,1.0,-0.066,-2.1,0.7,-1.3,101435,27.7,28.9,0,4.11,71.2,0.4301833556922331,-0.054041184465520094,-2.058109650259438,-0.012180110274175857,-0.02727189179067546,-0.46087092592831597,0.0027015198308959504,93.88366879522552,-31.036190155126352,82.47978078614291
8.722000000000008,0,0,0,-43.81921,172.65567,0.0,A,3,1,13,12.5,10.0,-0.094,0.99,-0.081,-2.3,-9.0,-0.8,101435,27.7,28.5,0,4.14,38.2,0.4301833556922331,-0.0553345993880634,-2.081557072816065,-0.012050128773780849,-0.02446470511104486,-0.4770259763365593,0.0024977401849032074,93.97619838243811,-30.9779795740406,82.50195265143057
8.771999999999991,0,0,0,-43.81921,172.65567,0.0,A,3,1,13,12.5,10.0,-0.082,0.995,-0.02,0.4,-6.0,0.2,101435,27.2,28.7,0,4.14,40.1,0.4301833556922331,-0.0562846466090691,-2.1059762747862254,-0.011983185148007638,-0.013537183729196305,-0.4997421024701914,0.00018000484602612903,94.11389115572976,-31.403906337445573,82.51048011906815
8.822000000000003,0,0,0,-43.81921,172.65567,0.0,A,3,1,13,12.5,10.0,-0.055,0.99,-0.084,-0.6,13.3,0.3,101435,27.7,28.7,0,4.15,45.7,0.4301833556922331,-0.05657937167210947,-2.1313016617513223,-0.01204460561148744,0.0017481812075841995,-0.5132733761334517,-0.002636823385217674,94.17120414372877,-31.687603964047714,82.42533301603653
8.871999999999986,0,0,0,-43.81921,172.65567,0.0,A,3,1,13,12.5,10.0,-0.087,0.993,-0.109,0.3,-1.6,1.6,101440,27.5,28.6,0,4.13,50.3,0.0,-0.05658158303858469,-2.1570511075779897,-0.012206387313434324,-0.00183663586659306,-0.516704456933597,-0.0038344446926598967,94.07420177253803,-31.015320422091918,82.47064085963589
8.921999999999997,0,0,0,-43.81921,172.65567,0.0,A,3,1,13,12.5,10.0,-0.064,0.999,-0.089,1.2,-5.9,1.8,101440,27.5,28.9,0,4.14,47.5,0.0,-0.05680902073043695,-2.183017531717738,-0.012367044068227466,-0.007260871807495298,-0.5219525086560942,-0.002591825499064274,94.0165608508466,-31.090099039381485,82.45021153623733
8.972000000000008,0,0,0,-43.81921,172.65567,0.0,A,3,1,13,12.5,10.0,-0.084,0.986,-0.061,1.8,18.5,0.8,101440,27.7,28.9,0,4.14,48.9,0.0,-0.05704852165049852,-2.2093992777387386,-0.01253778622799026,-0.002319164994965305,-0.5333173321836914,-0.004237860891445977,93.98049381890438,-31.37935646089409,82.3737519655156
9.021999999999991,0,0,0,-43.81921,172.65567,0.0,A,3,1,13,12.5,10.0,-0.088,0.994,-0.15,-0.4,4.6,1.0,101440,27.5,28.6,0,4.11,74.0,0.0,-0.057422504257625365,-2.236312873057795,-0.012775895787830987,-0.012640139290113504,-0.5432264805789289,-0.005286521502186335,93.81345215002585,-30.452860290513676,82.33441590200422
9.073000000000008,0,0,0,-43.81921,172.65567,0.0,A,3,1,13,12.5,10.0,-0.064,0.992,-0.112,-1.0,-8.1,0.8,101440,27.5,28.4,0,4.13,71.2,0.0,-0.05852976724206774,-2.264025660792049,-0.013010718980726838,-0.030781938531142333,-0.5435495089993174,-0.003922231160393136,93.7416096196676,-30.211778122070882,82.35523222446345
9.135999999999996,0,0,0,-43.81921,172.65567,0.0,A,3,1,13,12.4,10.0,-0.095,0.997,-0.08,-1.6,-2.5,0.1,101433,27.2,28.4,0,4.15,38.7,0.6022615056609358,-0.060630989675842135,-2.298690406841615,-0.013239852545375953,-0.03592353555694638,-0.5569186195585558,-0.003351850257040431,93.79080726916708,-30.70526348779479,82.34898881581377
