timestamp,pdop,hdop,vdop,lati,longi,gps_speed,gps_mode,gps_fix_type,gps_fix_quality,gps_sats_tracked,gps_alt,gps_height,accel_x_g,accel_y_g,accel_z_g,gyro_x_dps,gyro_y_dps,gyro_z_dps,pressure_pa,tc_temp_C,cjc_temp_C,oc_sc_flags,batt_voltage_V,batt_current_mA,baro_calculated_altitude_m,pos_x,pos_y,pos_z,vel_x,vel_y,vel_z,roll_deg,pitch_deg,yaw_deg
0.0,0,0,0,-43.81921,172.65567,0.0,A,3,1,13,12.6,10.0,-0.087,0.996,-0.056,0.2,0.1,1.5,101439,27.5,28.6,0,4.15,45.2,0.0860352975608124,8.898558928156528e-05,0.00043755185203277485,0.0017509390864104506,0.0035594235712638252,0.017502074081316963,0.0012340055181310882,-121.26227347423523,-83.4998333680936,-0.2490614482174024
0.05000000000001137,0,0,0,-43.81921,172.65567,0.0,A,3,1,13,12.6,10.0,-0.093,0.985,-0.038,0.4,13.4,1.0,101439,27.5,28.6,0,4.14,39.6,0.0860352975608124,0.000581669435162335,0.0006597682757081798,0.003410913912192213,0.01614793026396248,-0.008613417134302782,-0.002283488934713617,-120.63675320318954,-83.48873860828043,-0.8611063339991315
0.09999999999999432,0,0,0,-43.81921,172.65567,0.0,A,3,1,13,12.6,10.0,-0.066,0.997,-0.129,-0.1,-4.4,0.9,101439,27.5,28.9,0,4.15,42.4,0.0860352975608124,0.0013961751607844148,-0.0001040888677477337,0.004906637176001087,0.016432298760931812,-0.02194086860394418,-0.004115058378085719,-119.49518901404186,-83.45539652107517,-1.3232501594380257
0.15000000000000568,0,0,0,-43.81921,172.65567,0.0,A,3,1,13,12.6,10.0,-0.044,0.992,-0.082,-0.7,-1.0,0.2,101439,27.7,28.7,0,4.14,49.8,0.0860352975608124,0.0021618886867376575,-0.0011515760461397449,0.006333192821585981,0.014196242277190923,-0.019958618531726733,-0.0038856584427832018,-119.39340613545215,-83.44079932525226,-1.6346502866682822
0.20000000000001705,0,0,0,-43.81921,172.65567,0.0,A,3,1,13,12.6,10.0,-0.057,0.993,-0.125,-1.2,3.4,-0.4,101439,27.5,28.7,0,4.11,77.7,0.0860352975608124,0.002864512330814052,-0.0020642869345688496,0.007713216290414622,0.013908703485858468,-0.016549817005429162,-0.004849795677863308,-119.5152594731385,-83.43512029500275,-1.5498246996083924
0.25,0,0,0,-43.81921,172.65567,0.0,A,3,1,13,12.6,10.0,-0.074,0.995,-0.086,-1.0,-6.6,-0.1,101439,27.5,28.4,0,4.11,78.7,0.0860352975608124,0.0034407401687839003,-0.002947166488951037,0.009048884588127408,0.009140410032943334,-0.018765365169870374,-0.004569523819902003,-119.75095817222625,-83.43630796158142,-1.1289503213887446
0.30000000000001137,0,0,0,-43.81921,172.65567,0.0,A,3,1,13,12.6,10.0,-0.081,0.993,-0.079,-1.2,-5.8,0.2,101439,27.0,28.6,0,4.14,51.2,0.0860352975608124,0.003942721535448001,-0.004202397105520946,0.010352504079221846,0.010938844633616124,-0.031443859492914575,-0.005067568766188163,-120.33038977017058,-83.43600586300177,-0.8653744919131935
0.3499999999999943,0,0,0,-43.81921,172.65567,0.0,A,3,1,13,12.6,10.0,-0.07,0.994,-0.077,-0.6,2.7,0.8,101439,27.5,28.6,0,4.15,45.2,0.0860352975608124,0.0045906519210824875,-0.006086718606784138,0.011593244049023461,0.014978370791772201,-0.043929000557638806,-0.006071855716680792,-120.80196378721746,-83.45166587088833,-0.6701069835007648
0.4000000000000057,0,0,0,-43.81921,172.65567,0.0,A,3,1,13,12.6,10.0,-0.062,0.995,-0.097,-0.2,10.2,0.9,101439,27.5,28.6,0,4.11,75.9,0.0860352975608124,0.0054058913693923035,-0.00843655902103907,0.012775980015625115,0.017631207140613038,-0.05006461601253707,-0.006422230145933747,-120.49083612186739,-83.45677690725468,-0.8348923349759974
0.4620000000000175,0,0,0,-43.81921,172.65567,0.0,A,3,1,13,12.5,10.0,-0.051,0.994,-0.123,-0.1,-2.0,0.9,101439,27.5,28.7,0,4.15,39.6,0.0860352975608124,0.006325045778368243,-0.011424406475703638,0.01386956908065796,0.01201893508441159,-0.04631755994436612,-0.005809411916963942,-119.48479102284765,-83.44446522408934,-1.1954942017458638
0.5060000000000002,0,0,0,-43.81921,172.65567,0.0,A,3,1,13,12.5,10.0,-0.067,0.994,-0.095,-1.1,-4.6,0.1,101443,27.5,28.7,0,4.15,40.5,-0.258101772141013,0.006763862842280794,-0.013440548226605965,0.008184710514085178,0.007927295093439514,-0.04532524691486656,-0.005574249592287167,-119.2901544107253,-83.43158869181431,-1.468996016698503
0.5529999999999973,0,0,0,-43.81921,172.65567,0.0,A,3,1,13,12.5,10.0,-0.048,0.994,-0.106,-1.0,-0.5,0.4,101443,27.5,29.0,0,4.14,40.5,-0.258101772141013,0.007121354313788859,-0.015576677594757934,0.0025981322364036384,0.007285107949457841,-0.045573875134159184,-0.005752221296969831,-119.68982447711119,-83.44029537146142,-1.2725667582619065
0.6030000000000086,0,0,0,-43.81921,172.65567,0.0,A,3,1,13,12.5,10.0,-0.095,0.994,-0.089,-1.1,1.4,0.3,101443,28.0,28.2,0,4.14,43.3,-0.258101772141013,0.007409722535564052,-0.018022042412399363,-0.0028963430649468053,0.004249620921547251,-0.05224071757147577,-0.0056958282459706805,-119.77571668212936,-83.45255407790356,-1.1987758405993303
0.65300000000002,0,0,0,-43.81921,172.65567,0.0,A,3,1,13,12.5,10.0,-0.078,0.991,-0.07,-1.0,-2.7,0.5,101443,27.0,28.2,0,4.14,41.5,-0.258101772141013,0.007635652592290236,-0.021070062576184684,-0.008307237954905268,0.004787581347498051,-0.06968008897990927,-0.006826061894317683,-119.82640333909316,-83.46665657485414,-1.0648007157764334
0.703000000000003,0,0,0,-43.81921,172.65567,0.0,A,3,1,13,12.5,10.0,-0.053,0.996,-0.082,-0.4,3.2,0.6,101443,27.0,28.6,0,4.15,39.6,-0.258101772141013,0.008055018496957101,-0.024788883963209957,-0.013671745903596627,0.011987054839182276,-0.0790727665011524,-0.0082195407574915,-119.98504303557743,-83.48138267021109,-1.0285093359135027
0.7530000000000143,0,0,0,-43.81921,172.65567,0.0,A,3,1,13,12.5,10.0,-0.051,0.994,-0.1,0.1,2.2,0.5,101441,27.5,28.2,0,4.11,67.1,-0.0860346107954208,0.008763428272859607,-0.028742729671053725,-0.015529378625982677,0.016349336196911476,-0.0790810618125623,-0.008530476571058375,-119.68008118362083,-83.47257686876878,-1.1619183043521524
0.8029999999999973,0,0,0,-43.81921,172.65567,0.0,A,3,1,13,12.5,10.0,-0.054,0.994,-0.115,-0.6,-1.6,0.1,101441,27.2,28.2,0,4.15,45.2,-0.0860346107954208,0.009517216396581452,-0.032606164176016084,-0.01735706773178551,0.013802188751972639,-0.07545631838598488,-0.008513787200950255,-119.35652289024483,-83.43946956455237,-1.364379148134052
0.8530000000000086,0,0,0,-43.81921,172.65567,0.0,A,3,1,13,12.5,10.0,-0.066,0.996,-0.088,-0.9,-2.7,0.1,101441,27.2,28.8,0,4.15,40.5,-0.0860346107954208,0.01016585650082828,-0.036407001657919075,-0.01913754804847269,0.012143415417894632,-0.07657718089010032,-0.008095578326167061,-119.52480322257682,-83.42698090888784,-1.2630172756769833
0.90300000000002,0,0,0,-43.81921,172.65567,0.0,A,3,1,13,12.5,10.0,-0.102,0.993,-0.093,-1.2,-1.2,0.5,101441,28.0,28.7,0,4.15,44.3,-0.0860346107954208,0.010697218767391423,-0.0405797707097079,-0.020864649112724457,0.009111075244626232,-0.09033358118141466,-0.007788495523331634,-119.81199727022477,-83.42747985124784,-1.0973176012228811
0.953000000000003,0,0,0,-43.81921,172.65567,0.0,A,3,1,13,12.5,10.0,-0.088,0.993,-0.091,-1.2,-1.1,1.0,101441,27.5,28.7,0,4.14,41.5,-0.0860346107954208,0.010987579744346599,-0.045541485771953535,-0.022550679132287484,0.0025033638335847635,-0.10813502130847868,-0.007829087575004192,-119.93868609534961,-83.45087925070857,-1.0176907812796867
1.0030000000000143,0,0,0,-43.81921,172.65567,0.0,A,3,1,13,12.5,10.0,-0.04,0.996,-0.099,-1.0,1.5,1.0,101441,27.5,28.7,0,4.14,39.6,-0.0860346107954208,0.011106089995644278,-0.05104759755220199,-0.02420464702293199,0.0022370462183213245,-0.11210944990140957,-0.007856188236495695,-119.87155275984111,-83.48673805930156,-1.1281242853668525
1.0529999999999973,0,0,0,-43.81921,172.65567,0.0,A,3,1,13,12.5,10.0,-0.042,0.999,-0.094,-0.8,2.7,0.5,101441,27.5,28.7,0,4.15,39.6,-0.0860346107954208,0.011337043522697406,-0.05650482887425853,-0.025804891468294875,0.007001094863806961,-0.10617980298092618,-0.006986471759962725,-119.62947901104101,-83.51388090618998,-1.283781989692483
1.1030000000000086,0,0,0,-43.81921,172.65567,0.0,A,3,1,13,12.5,10.0,-0.058,0.996,-0.086,-0.6,-1.5,-0.1,101441,27.5,28.7,0,4.11,74.0,-0.0860346107954208,0.011814131696991265,-0.06180567411596292,-0.027332089667510464,0.012082432107943054,-0.10585400668720132,-0.006181030798118669,-119.47415577482609,-83.51993309811587,-1.2917395812246326
1.15300000000002,0,0,0,-43.81921,172.65567,0.0,A,3,1,13,12.5,10.0,-0.074,0.99,-0.08,-0.4,-1.6,-0.2,101441,27.2,28.4,0,4.15,47.1,-0.0860346107954208,0.012513521981540522,-0.06730139183731673,-0.02884049587364036,0.01589317927402087,-0.11397470216690118,-0.0074661440415389165,-119.71481340697486,-83.50247476903483,-1.1125173198943878
1.203000000000003,0,0,0,-43.81921,172.65567,0.0,A,3,1,13,12.5,10.0,-0.081,0.993,-0.088,0.0,2.0,0.2,101441,27.2,28.6,0,4.14,46.6,-0.0860346107954208,0.013323930170038462,-0.07331221352706496,-0.030390588922874,0.016523148265907783,-0.12645816542310984,-0.009113886603284311,-119.95360726779839,-83.47376969552549,-0.940195177276576
1.2530000000000143,0,0,0,-43.81921,172.65567,0.0,A,3,1,13,12.5,10.0,-0.063,0.993,-0.111,0.0,1.3,0.9,101440,27.7,28.6,0,4.11,68.4,0.0,0.014047094175381056,-0.07979148558572104,-0.030237135261228114,0.012403411947789437,-0.1327127169230742,-0.009431342654327613,-119.7734182010563,-83.43766909229569,-1.0084122023664028
1.3029999999999973,0,0,0,-43.81921,172.65567,0.0,A,3,1,13,12.5,10.0,-0.062,0.997,-0.114,-1.0,6.0,1.0,101440,27.2,28.4,0,4.14,48.0,0.0,0.014496324606559937,-0.08640940293574068,-0.030069427826163047,0.0055658052993719075,-0.1320039770778017,-0.008406831637902784,-119.36588426787033,-83.4188008547955,-1.340713037817229
1.3530000000000086,0,0,0,-43.81921,172.65567,0.0,A,3,1,13,12.5,10.0,-0.072,0.996,-0.091,-1.5,-4.1,0.9,101440,27.2,28.5,0,4.14,49.4,0.0,0.014681982107172387,-0.09311274841545301,-0.029846011441354858,0.0018604947251243545,-0.1361298421106311,-0.007020603942300742,-118.89789017237982,-83.44575184639076,-1.4973183327271293
1.40300000000002,0,0,0,-43.81921,172.65567,0.0,A,3,1,13,12.5,10.0,-0.022,0.995,-0.095,-1.2,-2.2,0.6,101440,27.2,28.5,0,4.14,48.4,0.0,0.014896582835476912,-0.09987404528459623,-0.029595724961084896,0.006723534407054715,-0.1343220326550363,-0.007127712325334327,-119.07745212970653,-83.49210264694,-1.5104249107805496
1.467000000000013,0,0,0,-43.81921,172.65567,0.0,A,3,1,13,12.5,10.0,-0.086,0.995,-0.072,-0.5,2.0,-0.1,101440,27.5,28.6,0,4.14,40.5,0.0,0.015601749168842858,-0.10860739270446254,-0.02947562411139495,0.015312913510633519,-0.13859507421581607,-0.007917365784735973,-119.25231901478767,-83.52531484054691,-1.4601425130807295
1.5080000000000098,0,0,0,-43.81921,172.65567,0.0,A,3,1,13,12.5,10.0,-0.035,0.992,-0.121,0.1,2.9,0.4,101438,27.5,28.6,0,4.13,44.3,0.1720712818972014,0.01622124504562252,-0.11433571780567037,-0.025771771853276122,0.014906397551791333,-0.14083541852605078,-0.00836366268978486,-119.28934635872514,-83.50751655620944,-1.3301019068478777
1.5560000000000116,0,0,0,-43.81921,172.65567,0.0,A,3,1,13,12.5,10.0,-0.037,0.996,-0.106,-0.1,0.4,0.8,101438,27.7,28.6,0,4.14,39.6,0.1720712818972014,0.016907020424088252,-0.12082580200943119,-0.022211513216635212,0.013667576550946485,-0.12958475663063965,-0.008498685880309869,-118.98270853135354,-83.47324943941445,-1.486629005105951
1.6059999999999945,0,0,0,-43.81921,172.65567,0.0,A,3,1,13,12.5,10.0,-0.061,0.997,-0.093,-0.8,0.7,0.4,101438,27.7,28.9,0,4.11,72.2,0.1720712818972014,0.017633157380252704,-0.12724418439612167,-0.01872392180850249,0.015377901695641493,-0.1271505388370678,-0.00774884449292083,-118.67975520838658,-83.45586173706364,-1.758935331454542
1.656000000000006,0,0,0,-43.81921,172.65567,0.0,A,3,1,13,12.5,10.0,-0.047,0.995,-0.123,-1.1,-0.6,0.5,101438,27.7,28.9,0,4.15,36.8,0.1720712818972014,0.018325223589803052,-0.13354493231077677,-0.015261753294214536,0.01230474668636613,-0.12487937774907833,-0.006689341622427955,-118.66194626342943,-83.45950051486913,-1.7291336755941762
1.7060000000000173,0,0,0,-43.81921,172.65567,0.0,A,3,1,13,12.5,10.0,-0.072,0.995,-0.091,-1.2,-4.6,0.4,101438,28.0,28.9,0,4.14,41.0,0.1720712818972014,0.0188364295224617,-0.13979569441225137,-0.011826423263935149,0.008143490619975189,-0.1251511063098491,-0.00601803280813793,-118.73381141521747,-83.4786961068292,-1.674497439901465
1.7560000000000002,0,0,0,-43.81921,172.65567,0.0,A,3,1,13,12.5,10.0,-0.079,0.993,-0.065,-1.6,-0.8,-0.2,101437,27.7,28.7,0,4.14,40.1,0.2581079530244445,0.019339075349413884,-0.14640439917669862,-0.006742166852958675,0.011962342458119038,-0.1391970842681315,-0.006815890244565409,-119.06596741557044,-83.49983058923976,-1.559181196111799
1.8060000000000116,0,0,0,-43.81921,172.65567,0.0,A,3,1,13,12.5,10.0,-0.058,0.993,-0.099,-0.9,-2.9,0.2,101437,27.7,28.4,0,4.11,72.2,0.2581079530244445,0.020027801386913697,-0.15360680746918734,-0.0018104161731641762,0.015586699041867201,-0.1488992474313521,-0.008092343133127919,-119.52590704440264,-83.52363681794355,-1.1240379891911738
1.8559999999999945,0,0,0,-43.81921,172.65567,0.0,A,3,1,13,12.5,10.0,-0.077,0.995,-0.085,-0.9,-3.1,0.2,101437,27.5,28.4,0,4.15,42.4,0.2581079530244445,0.020797460187692986,-0.16121261509260174,0.0029835351214898827,0.015199652989314937,-0.15533305750532797,-0.00841443602190299,-119.7873256244892,-83.52661366601663,-0.9943758160898446
1.906000000000006,0,0,0,-43.81921,172.65567,0.0,A,3,1,13,12.5,10.0,-0.079,0.997,-0.069,-0.8,-2.0,0.1,101437,27.7,28.8,0,4.14,42.4,0.2581079530244445,0.02164097050526028,-0.16933856555389526,0.007679248374603636,0.018540759713369215,-0.16970496094633883,-0.008188629486066457,-120.05892395124275,-83.52952246999472,-0.86453349918556
1.9560000000000173,0,0,0,-43.81921,172.65567,0.0,A,3,1,13,12.5,10.0,-0.087,0.994,-0.093,-0.6,-0.2,0.6,101437,27.7,28.7,0,4.11,72.2,0.2581079530244445,0.022577336125043423,-0.1782043077971709,0.012294382170978037,0.018913865077948018,-0.18492472878460536,-0.007870158131171584,-120.2915705045336,-83.52553114832324,-0.7185398712601887
2.0060000000000002,0,0,0,-43.81921,172.65567,0.0,A,3,1,13,12.5,10.0,-0.057,0.992,-0.105,-1.0,-0.4,1.0,101434,27.5,28.7,0,4.15,42.9,0.5162220872582411,0.023410187204964676,-0.1876001881225553,0.021978888472295396,0.014400178118913514,-0.1909104842308989,-0.008213425559769161,-120.19943626830094,-83.52547355670663,-0.8088334551207881
2.0560000000000116,0,0,0,-43.81921,172.65567,0.0,A,3,1,13,12.5,10.0,-0.063,0.994,-0.104,-1.3,-2.3,0.7,101434,27.5,28.6,0,4.14,41.0,0.5162220872582411,0.024032297378535995,-0.19713736629522424,0.031451086818571485,0.010484228823933635,-0.19057664267577198,-0.008630069519526303,-120.0530009131205,-83.5527313612171,-0.9638367174063565
2.1059999999999945,0,0,0,-43.81921,172.65567,0.0,A,3,1,13,12.5,10.0,-0.07,0.998,-0.067,-1.8,-4.1,0.2,101434,27.5,28.8,0,4.14,45.7,0.5162220872582411,0.024613559133598945,-0.20684650416376174,0.04073153686709619,0.012766241378592252,-0.19778887206586088,-0.008307479879201735,-120.18269622543438,-83.58543481313512,-0.9365531992979373
2.156000000000006,0,0,0,-43.81921,172.65567,0.0,A,3,1,13,12.5,10.0,-0.022,0.997,-0.123,-1.2,0.2,0.0,101434,28.0,28.8,0,4.14,47.5,0.5162220872582411,0.025333993148255834,-0.2166328002101331,0.04985696125970468,0.016051119207676788,-0.19366296978890474,-0.0073817697213830425,-120.7096075441753,-83.6270048158991,-0.6001328684084122
2.2060000000000173,0,0,0,-43.81921,172.65567,0.0,A,3,1,13,12.5,10.0,-0.106,0.999,-0.049,-0.1,-0.4,-0.1,101434,28.0,28.7,0,4.12,44.7,0.5162220872582411,0.026193243238187003,-0.22644959714467017,0.05885360057087381,0.018318884389562223,-0.1990089075924884,-0.0061146877807204585,-120.96457082237912,-83.63743326649805,-0.32103113214640083
2.2560000000000002,0,0,0,-43.81921,172.65567,0.0,A,3,1,13,12.5,10.0,-0.089,0.99,-0.049,1.7,2.2,1.3,101428,28.0,28.8,0,4.14,47.1,1.03246890067285,0.02733731661415122,-0.23711632024089518,0.07799606212270355,0.02744405064902202,-0.22766001625665805,-0.0073483510033582194,-121.0342336466686,-83.59805430328939,-0.2585646374568621
2.3060000000000116,0,0,0,-43.81921,172.65567,0.0,A,3,1,13,12.5,10.0,-0.031,0.996,-0.08,1.3,19.3,0.7,101428,27.7,28.8,0,4.11,75.4,1.03246890067285,0.02902408921450598,-0.24873500586875572,0.09666913036953387,0.04002685336515294,-0.23708740885765703,-0.009647098962868049,-120.0372436167217,-83.51677763836067,-1.1386958553611068
2.3559999999999945,0,0,0,-43.81921,172.65567,0.0,A,3,1,13,12.5,10.0,0.0,0.994,-0.201,0.9,0.8,0.7,101428,26.5,27.9,0,4.14,44.7,1.03246890067285,0.030838510497623605,-0.2599126488116647,0.11494047418723247,0.03254999795957692,-0.21001830885885547,-0.008501945460311335,-118.52634369437023,-83.43613308264824,-1.6756554876577232
2.406000000000006,0,0,0,-43.81921,172.65567,0.0,A,3,1,13,12.5,10.0,-0.015,0.997,-0.175,-1.8,-9.1,-0.5,101428,26.5,28.6,0,4.14,46.6,1.03246890067285,0.03184227293061321,-0.26938127336095335,0.1329612227578738,0.007600499359998118,-0.16872667311260522,-0.004960093685441697,-118.04053024248923,-83.37204955996738,-2.111940084392963
2.468999999999994,0,0,0,-43.81921,172.65567,0.0,A,3,1,13,12.4,10.0,-0.099,1.0,-0.097,-3.2,-13.1,-0.4,101436,27.5,28.4,0,4.13,39.1,0.3441453109527267,0.03172720683500682,-0.27969688397002895,0.1370259027697904,-0.01125339128401115,-0.1587530287628724,-0.0001905947493014903,-119.32512595340144,-83.40468956706442,-1.3801328730258646
2.5120000000000005,0,0,0,-43.81921,172.65567,0.0,A,3,1,13,12.4,10.0,-0.125,0.996,-0.016,-1.6,-4.5,0.4,101436,27.2,28.4,0,4.14,41.9,0.3441453109527267,0.031319500898400236,-0.2871497538254874,0.14118163137640982,-0.007709675534897117,-0.18789208079328285,0.0008237434422620504,-120.61144029684931,-83.47997212503827,-0.6416089242061438
2.5600000000000023,0,0,0,-43.81921,172.65567,0.0,A,3,1,13,12.4,10.0,-0.085,0.993,-0.034,-0.1,7.8,1.8,101436,27.2,28.9,0,4.14,38.7,0.3441453109527267,0.03136908686851106,-0.29704668205769313,0.145230007289963,0.00977575762284793,-0.22447992888193924,-0.0012870800907820706,-121.0178481255689,-83.51632004115245,-0.4379714908313075
2.6100000000000136,0,0,0,-43.81921,172.65567,0.0,A,3,1,13,12.4,10.0,-0.089,0.99,-0.062,2.1,19.2,2.4,101436,28.0,28.9,0,4.14,43.8,0.3441453109527267,0.03217935189873399,-0.3088960424277054,0.14906978358667736,0.022634843586062117,-0.24949448591844456,-0.004367196502724518,-119.95882344557727,-83.52520419555653,-1.0988003252243173
2.6599999999999966,0,0,0,-43.81921,172.65567,0.0,A,3,1,13,12.4,10.0,-0.033,1.0,-0.172,-0.5,2.9,-0.1,101436,28.0,28.9,0,4.14,39.6,0.3441453109527267,0.03308378962561878,-0.3213317984431085,0.15278824710991945,0.01354266548934183,-0.24793575469784765,-0.0031041106025388146,-117.63666587673148,-83.44993578081805,-2.4573055950933003
2.710000000000008,0,0,0,-43.81921,172.65567,0.0,A,3,1,13,12.4,10.0,-0.044,0.993,-0.151,-1.5,-14.8,-0.3,101436,28.0,28.9,0,4.14,41.0,0.3441453109527267,0.03321814019492148,-0.3332051376154419,0.15655048994114573,-0.008168642717235063,-0.22699781219538168,0.0004551944543817652,-117.64026701616258,-83.42874947472004,-2.2952265429128778
2.7600000000000193,0,0,0,-43.81921,172.65567,0.0,A,3,1,13,12.4,10.0,-0.049,0.993,-0.109,-3.5,-7.0,-1.0,101436,27.7,28.9,0,4.14,35.9,0.3441453109527267,0.03254641094060626,-0.344295190297443,0.1603368505608387,-0.018700527455367773,-0.21660429508456006,0.0009515075644478492,-118.80908268846969,-83.44670053327559,-1.8510845093902821
2.8100000000000023,0,0,0,-43.81921,172.65567,0.0,A,3,1,13,12.4,10.0,-0.052,0.992,-0.055,-1.8,-3.8,0.5,101436,27.7,29.0,0,4.11,72.2,0.3441453109527267,0.03181708412468839,-0.3551736100353746,0.16401096061655698,-0.010472545181356947,-0.21853249443285372,-0.001035554589733502,-120.29403413819573,-83.53320463023087,-0.696271317115965
2.8600000000000136,0,0,0,-43.81921,172.65567,0.0,A,3,1,13,12.4,10.0,-0.124,0.996,-0.039,-0.9,-2.0,0.6,101436,27.7,28.6,0,4.15,40.5,0.3441453109527267,0.031616171064869365,-0.36674053886795344,0.1675170714082232,0.0024360227885979364,-0.2441446588701936,-0.0029063317391313783,-120.68923006614486,-83.58235598032856,-0.47727605132147893
2.9099999999999966,0,0,0,-43.81921,172.65567,0.0,A,3,1,13,12.4,10.0,-0.081,0.997,-0.078,0.2,2.9,1.1,101436,27.5,28.8,0,4.14,42.9,0.3441453109527267,0.03184567796979062,-0.3796624295561356,0.17091475483151888,0.006744253408255303,-0.27273096865726965,-0.0025990302034986073,-120.75439864009485,-83.59527789771617,-0.4998320077186633
2.960000000000008,0,0,0,-43.81921,172.65567,0.0,A,3,1,13,12.4,10.0,-0.006,1.003,-0.137,1.1,12.3,0.8,101439,28.0,28.8,0,4.14,39.1,0.0860352975608124,0.03215709236795975,-0.39309073424109015,0.16915569654157736,0.005712322518507101,-0.26440121874078953,9.008552891169022e-05,-120.13450481105214,-83.57343822428142,-0.9652237912679893
3.0100000000000193,0,0,0,-43.81921,172.65567,0.0,A,3,1,13,12.4,10.0,-0.021,0.997,-0.138,-1.4,-2.4,-0.5,101439,28.0,28.8,0,4.14,41.0,0.0860352975608124,0.03229936259963551,-0.4056204243379275,0.1675788030086769,-2.1513251477987654e-05,-0.23678638513259173,0.003400300051285077,-118.97019375790288,-83.50424726949556,-1.5055499805790533
3.0600000000000023,0,0,0,-43.81921,172.65567,0.0,A,3,1,13,12.4,10.0,-0.08,0.994,-0.097,-1.8,-16.9,0.4,101439,27.7,28.9,0,4.15,35.9,0.0860352975608124,0.032132131463724546,-0.4172916857476877,0.1661435829524374,-0.006667732184963025,-0.2300640712579758,0.004585416386179005,-119.58182718803336,-83.51201250161537,-0.998247199366391
3.1100000000000136,0,0,0,-43.81921,172.65567,0.0,A,3,1,13,12.4,10.0,-0.099,0.987,-0.089,-2.7,1.1,-1.0,101439,28.0,28.9,0,4.14,37.7,0.0860352975608124,0.03163233814307733,-0.4291690500738792,0.16473275130987877,-0.013324000640921124,-0.24503050178957445,0.0032241372984675417,-120.66664286201753,-83.5588106495628,-0.7444010360155496
3.1599999999999966,0,0,0,-43.81921,172.65567,0.0,A,3,1,13,12.4,10.0,-0.03,0.998,-0.08,-2.1,8.2,-1.0,101439,28.0,28.9,0,4.11,76.8,0.0860352975608124,0.031037684647172856,-0.44156191029729436,0.1632804492843822,-0.01046213919526594,-0.25068390714720146,0.001741048394789372,-121.60028978613161,-83.60742639821086,0.2629731994739415
3.210000000000008,0,0,0,-43.81921,172.65567,0.0,A,3,1,13,12.4,10.0,-0.016,0.997,-0.066,-0.4,-11.0,0.8,101442,28.5,28.8,0,4.14,48.4,-0.1720685348458202,0.03096734108945457,-0.45385783141367675,0.156640287438707,0.007648396886535224,-0.2411529375079827,0.0009862102553673687,-122.04822189825363,-83.62918989590707,1.138748477801412
3.2600000000000193,0,0,0,-43.81921,172.65567,0.0,A,3,1,13,12.4,10.0,-0.082,0.997,-0.05,-0.1,-0.5,-0.8,101442,28.0,28.8,0,4.14,46.6,-0.1720685348458202,0.031790596978923495,-0.46603621296714853,0.15009154420966575,0.025281838692214266,-0.24598232463077732,5.188022011412812e-05,-122.37118028410919,-83.62635048371077,0.9227891569661999
3.3100000000000023,0,0,0,-43.81921,172.65567,0.0,A,3,1,13,12.4,10.0,-0.076,0.987,-0.096,0.1,5.9,0.4,101442,28.0,28.6,0,4.11,78.2,-0.1720685348458202,0.03314980871168384,-0.4786687547650023,0.14360663463245132,0.02908663061821805,-0.2593193472835463,-0.0017542474080610802,-122.69915990295976,-83.56797574443519,1.2401649184168264
3.3600000000000136,0,0,0,-43.81921,172.65567,0.0,A,3,1,13,12.4,10.0,-0.103,0.984,-0.133,0.0,3.1,1.0,101442,27.2,28.2,0,4.12,73.1,-0.1720685348458202,0.03420281388314989,-0.4918161449627677,0.13714008016825138,0.013033576240414388,-0.2665762606269491,-0.004492735230080123,-122.21021202946451,-83.53341078443722,1.0574774847361013
3.4110000000000014,0,0,0,-43.81921,172.65567,0.0,A,3,1,13,12.4,10.0,-0.084,0.998,-0.082,0.3,-3.3,2.2,101442,26.7,28.2,0,4.14,40.5,-0.1720685348458202,0.034514247159107725,-0.5057033151347318,0.13072429855626955,-0.0008205065950063085,-0.2780186480776548,-0.004775344469818093,-121.65275973439331,-83.51847755119603,0.6683083571223871
3.474000000000018,0,0,0,-43.81921,172.65567,0.0,A,3,1,13,12.5,10.0,0.003,1.012,-0.092,2.0,9.0,3.5,101445,28.2,29.0,0,4.14,38.7,-0.430166186587999,0.03482592968335849,-0.523016216200592,0.11936960452545217,0.010715189904551892,-0.2715972587749082,0.00034112587791806145,-120.71427238185716,-83.52229991051105,-0.4697033039183649
3.51400000000001,0,0,0,-43.81921,172.65567,0.0,A,3,1,13,12.5,10.0,0.031,0.998,-0.153,-1.3,15.4,0.4,101445,28.2,28.8,0,4.11,71.2,-0.430166186587999,0.03539521939126962,-0.5332896191452693,0.10845812154823815,0.017749295491010085,-0.24207288845905714,0.003701366216726357,-118.9342659543794,-83.48965742517336,-1.8888811988592287
3.5630000000000166,0,0,0,-43.81921,172.65567,0.0,A,3,1,13,12.5,10.0,-0.046,0.989,-0.145,0.3,-7.4,1.1,101445,27.5,28.8,0,4.14,37.7,-0.430166186587999,0.03604373790863316,-0.5443822478217007,0.09787720479677735,0.008720848074845144,-0.2106874656809415,0.004277368113299613,-118.29970924992327,-83.51473348851695,-1.7558148973322647
3.6129999999999995,0,0,0,-43.81921,172.65567,0.0,A,3,1,13,12.5,10.0,-0.055,0.992,-0.083,-1.9,-2.1,-1.2,101445,27.5,28.7,0,4.14,41.0,-0.430166186587999,0.036343278057164495,-0.5547967387754564,0.08749105408635927,0.0032607578664122757,-0.20589217246942917,0.0028539427959864668,-118.18775386736034,-83.48650826085124,-2.2283909404720568
3.663000000000011,0,0,0,-43.81921,172.65567,0.0,A,3,1,13,12.5,10.0,-0.073,0.999,-0.083,-0.8,-5.9,-0.2,101445,27.5,28.6,0,4.12,71.2,-0.430166186587999,0.03662183825343282,-0.5652950676937937,0.0772744448296152,0.007881649984318144,-0.2140409842639643,0.0027189370710776263,-119.15689763209367,-83.500019157247,-1.346147963220592
3.712999999999994,0,0,0,-43.81921,172.65567,0.0,A,3,1,13,12.5,10.0,-0.122,0.99,-0.075,-0.8,-5.7,0.8,101439,27.5,28.6,0,4.14,41.9,0.0860352975608124,0.03696299790184917,-0.5765609882632909,0.07758566923492938,0.0057647359523404175,-0.23659583851607946,0.0028323833652611377,-119.69881244502145,-83.48887292160045,-1.0851359445176856
3.7630000000000052,0,0,0,-43.81921,172.65567,0.0,A,3,1,13,12.5,10.0,-0.069,0.994,-0.084,-0.2,8.5,1.0,101439,27.5,28.8,0,4.14,36.4,0.0860352975608124,0.037200792932875,-0.5889222907345902,0.07786581192664989,0.0037470652886908273,-0.25785626033577796,0.0017043564389357382,-119.84952530045587,-83.50237729173381,-1.2077960963944454
3.8130000000000166,0,0,0,-43.81921,172.65567,0.0,A,3,1,13,12.5,10.0,-0.066,0.993,-0.085,0.6,12.4,1.3,101439,28.0,28.9,0,4.15,38.2,0.0860352975608124,0.03746153453155648,-0.6020277140847925,0.07808988962767854,0.0066825986585658855,-0.2663606736721914,0.0007727043098560187,-119.08365792509507,-83.4946067482081,-1.538372891878258
3.8629999999999995,0,0,0,-43.81921,172.65567,0.0,A,3,1,13,12.5,10.0,-0.027,0.995,-0.143,-1.2,-3.7,0.2,101439,27.7,28.9,0,4.12,66.1,0.0860352975608124,0.03769280962597895,-0.6151784856880793,0.07829157276169119,0.0025684051183361405,-0.2596701904594622,0.0009732130513676905,-117.84312535898354,-83.45816580956553,-2.1504518623444024
3.913000000000011,0,0,0,-43.81921,172.65567,0.0,A,3,1,13,12.5,10.0,-0.042,0.991,-0.127,-2.3,-13.4,-0.5,101439,27.7,28.2,0,4.15,42.4,0.0860352975608124,0.03757197974692365,-0.6277485776706504,0.07850443982766679,-0.007401600280546846,-0.24313348884326608,0.0013938306218229145,-118.20412041105278,-83.47479945087332,-1.9608086412375472
3.962999999999994,0,0,0,-43.81921,172.65567,0.0,A,3,1,13,12.5,10.0,-0.056,0.999,-0.077,-1.6,-4.5,-0.7,101435,27.2,28.9,0,4.14,40.1,0.4301833556922331,0.03720778347768656,-0.6398286914300699,0.08561020110642213,-0.007166250488941959,-0.24007106153368127,0.0015524127032398075,-119.55523557165351,-83.52236540514987,-1.2627883302635092
4.013000000000005,0,0,0,-43.81921,172.65567,0.0,A,3,1,13,12.5,10.0,-0.074,1.0,-0.066,-2.1,0.7,-1.3,101435,27.7,28.9,0,4.11,71.2,0.4301833556922331,0.03707616606938978,-0.652088306930246,0.0926099150939884,0.001901554157072105,-0.2503135584732507,0.002865991209006317,-120.39460572139751,-83.53309673886994,-0.6319813302006287
4.063000000000017,0,0,0,-43.81921,172.65567,0.0,A,3,1,13,12.5,10.0,-0.094,0.99,-0.081,-2.3,-9.0,-0.8,101435,27.7,28.5,0,4.14,38.2,0.4301833556922331,0.037248948183201444,-0.6650261486722271,0.09949616312059935,0.00500973039539299,-0.2672001112058739,0.0026352012255249258,-121.31740300832453,-83.5488088164387,0.3444299527804205
4.1129999999999995,0,0,0,-43.81921,172.65567,0.0,A,3,1,13,12.5,10.0,-0.082,0.995,-0.02,0.4,-6.0,0.2,101435,27.2,28.7,0,4.14,40.1,0.4301833556922331,0.03778076295223751,-0.67897147521309,0.10618124599421881,0.01626286036605666,-0.290612950428833,0.0002765955984266439,-122.59038621896052,-83.58412939447514,1.1851236107442404
4.163000000000011,0,0,0,-43.81921,172.65567,0.0,A,3,1,13,12.5,10.0,-0.055,0.99,-0.084,-0.6,13.3,0.3,101435,27.7,28.7,0,4.15,45.7,0.4301833556922331,0.038983281388200834,-0.6938573842585509,0.11260511793593245,0.03183787707246549,-0.30482341138947155,-0.0025692589554326874,-122.69813666123338,-83.53160775794754,1.0041478440323979
4.212999999999994,0,0,0,-43.81921,172.65567,0.0,A,3,1,13,12.5,10.0,-0.087,0.993,-0.109,0.3,-1.6,1.6,101440,27.5,28.6,0,4.13,50.3,0.0,0.040491838199514116,-0.709203218659393,0.1101976664962294,0.028504395380086277,-0.3090099646444182,-0.0037715198602586574,-122.04268961942633,-83.52389690462758,1.0262582540270515
4.263000000000005,0,0,0,-43.81921,172.65567,0.0,A,3,1,13,12.5,10.0,-0.064,0.999,-0.089,1.2,-5.9,1.8,101440,27.5,28.9,0,4.14,47.5,0.0,0.04178794560875073,-0.7248040801374581,0.10783919315599957,0.0233399009893666,-0.315024494478046,-0.0025354193358724797,-121.43805631437702,-83.51213846438502,0.34971671759258816
4.313000000000017,0,0,0,-43.81921,172.65567,0.0,A,3,1,13,12.5,10.0,-0.084,0.986,-0.061,1.8,18.5,0.8,101440,27.7,28.9,0,4.14,48.9,0.0,0.04308553967403004,-0.7408574688668992,0.10551733648909767,0.028563861621794025,-0.3271110546994515,-0.004202246124612276,-120.77387928729998,-83.46617039973867,-0.6031893740611028
4.3629999999999995,0,0,0,-43.81921,172.65567,0.0,A,3,1,13,12.5,10.0,-0.088,0.994,-0.15,-0.4,4.6,1.0,101440,27.5,28.6,0,4.11,74.0,0.0,0.044262636067037286,-0.7574803109841904,0.1031751122351617,0.018519994098511912,-0.3378026299924236,-0.005262142616371064,-119.15386273982803,-83.36709577010963,-1.2903195201999336
4.414000000000016,0,0,0,-43.81921,172.65567,0.0,A,3,1,13,12.5,10.0,-0.064,0.992,-0.112,-1.0,-8.1,0.8,101440,27.5,28.4,0,4.13,71.2,0.0,0.0447508085238441,-0.7747376921689899,0.10088287818562355,0.0006240238154749389,-0.33895741647008765,-0.003890790750369198,-118.62133864577842,-83.36771522991526,-1.5775007783255017
4.477000000000004,0,0,0,-43.81921,172.65567,0.0,A,3,1,13,12.4,10.0,-0.095,0.997,-0.08,-1.6,-2.5,0.1,101433,27.2,28.4,0,4.15,38.7,0.6022615056609358,0.044639307600774336,-0.7965433269025909,0.11068724516056502,-0.004163735658960277,-0.35328495602531135,-0.0033397105312904453,-119.01502535643206,-83.39547573506775,-1.679146634831347
4.5160000000000196,0,0,0,-43.81921,172.65567,0.0,A,3,1,13,12.4,10.0,-0.092,0.993,-0.038,-1.2,-3.8,-0.1,101433,28.2,29.1,0,4.11,68.4,0.6022615056609358,0.044598652865020426,-0.8107192556151471,0.1203799329126077,0.002078877415170913,-0.3736857471824063,-0.003923369424999027,-119.34599248983423,-83.41982622563665,-1.4343762239315259
4.5660000000000025,0,0,0,-43.81921,172.65567,0.0,A,3,1,13,12.4,10.0,-0.094,0.988,-0.058,0.2,0.9,0.8,101433,28.2,28.7,0,4.15,39.1,0.6022615056609358,0.04500988593953931,-0.830111230804618,0.12974024138874005,0.014370445565590022,-0.4019932603966957,-0.007395935833544627,-119.82778538000476,-83.42845886743699,-1.1281522036776679
4.616000000000014,0,0,0,-43.81921,172.65567,0.0,A,3,1,13,12.4,10.0,-0.067,0.996,-0.091,1.2,11.5,1.3,101433,27.7,28.7,0,4.14,41.9,0.6022615056609358,0.04584064078500748,-0.8506197740092021,0.13878446330698596,0.018859748253129215,-0.4183484677864792,-0.009183793439840195,-119.43564141322503,-83.39846745619052,-1.4651035759494875
4.665999999999997,0,0,0,-43.81921,172.65567,0.0,A,3,1,13,12.4,10.0,-0.035,0.996,-0.164,-0.1,12.3,0.6,101433,27.7,29.0,0,4.14,40.1,0.6022615056609358,0.0465388211333542,-0.8713262514718955,0.14765240896636964,0.009067465680749145,-0.40991063072153894,-0.00720784687426098,-118.12426477212051,-83.33611637746012,-2.1939414030555895
4.716000000000008,0,0,0,-43.81921,172.65567,0.0,A,3,1,13,12.4,10.0,-0.04,0.994,-0.177,-1.0,-5.5,0.7,101434,27.7,28.6,0,4.11,71.2,0.5162220872582411,0.046382937374986756,-0.8912322019852291,0.15475143499679217,-0.015302816015445465,-0.38632738981162695,-0.0039091953875697895,-117.31060507408816,-83.31347852370952,-2.3814556976606482
4.7660000000000196,0,0,0,-43.81921,172.65567,0.0,A,3,1,13,12.4,10.0,-0.081,0.997,-0.083,-2.5,-9.1,0.1,101434,27.7,28.6,0,4.15,41.0,0.5162220872582411,0.04529473791301634,-0.910460221805849,0.16184116080396227,-0.028225162463361386,-0.38279340301299214,-0.0017923245332001955,-117.52710324707026,-83.33297462600126,-2.427855686135669
4.8160000000000025,0,0,0,-43.81921,172.65567,0.0,A,3,1,13,12.4,10.0,-0.09,0.998,-0.023,-2.2,-8.1,0.1,101434,28.0,28.9,0,4.16,38.7,0.5162220872582411,0.044212239337644385,-0.9302345160867868,0.16883849156286124,-0.015074780551531402,-0.40817836822479125,-0.0018928905764592594,-118.45560995798095,-83.40467037694964,-1.9386599894100571
4.866000000000014,0,0,0,-43.81921,172.65567,0.0,A,3,1,13,12.4,10.0,-0.056,0.992,-0.048,-0.9,1.3,0.5,101434,28.0,28.9,0,4.11,67.1,0.5162220872582411,0.04402888165395646,-0.9512341793203194,0.17563259555121782,0.007740473204015977,-0.43180816111632525,-0.004375188017458995,-119.28552849986413,-83.46235500429063,-1.4984371180140346
4.915999999999997,0,0,0,-43.81921,172.65567,0.0,A,3,1,13,12.4,10.0,-0.068,0.984,-0.125,0.1,7.5,0.8,101430,27.7,28.9,0,4.11,69.4,0.8603838820215451,0.044501719175719746,-0.9729720400145571,0.189023307729283,0.011173027666522053,-0.43770626665347906,-0.008045773261785249,-119.2213280987153,-83.47276476970892,-1.4851346223031148
4.966000000000008,0,0,0,-43.81921,172.65567,0.0,A,3,1,13,12.4,10.0,-0.023,0.998,-0.142,-0.1,6.7,0.9,101430,27.0,28.2,0,4.15,40.5,0.8603838820215451,0.04476056352890413,-0.994546716560023,0.20204765877192138,-0.0008192535391490681,-0.4252807951649635,-0.008397510134409482,-118.52135622515813,-83.44664170764013,-1.7997373634909826
5.0160000000000196,0,0,0,-43.81921,172.65567,0.0,A,3,1,13,12.4,10.0,-0.115,0.996,-0.124,-1.2,-2.6,0.5,101430,27.0,28.7,0,4.15,39.1,0.8603838820215451,0.04429424894825706,-1.0157718311464652,0.2148805084404005,-0.01783332968672967,-0.42372378829252777,-0.0052300325804185786,-117.86784986067855,-83.43127306655886,-2.107845065138612
5.0660000000000025,0,0,0,-43.81921,172.65567,0.0,A,3,1,13,12.4,10.0,-0.086,0.989,-0.088,-3.6,-20.0,-1.2,101430,27.7,28.7,0,4.14,40.1,0.8603838820215451,0.04306074592559669,-1.037425018925925,0.2275461049520068,-0.03150679121970197,-0.44240372288616553,-0.004748373950874064,-118.05774835142545,-83.45496306261958,-2.0350539180284106
5.116000000000014,0,0,0,-43.81921,172.65567,0.0,A,3,1,13,12.4,10.0,-0.056,0.995,-0.049,-2.5,-2.4,-0.2,101430,27.2,28.5,0,4.14,41.5,0.8603838820215451,0.04170390922161314,-1.0599038839486674,0.23991274074273367,-0.022766676939627594,-0.45675087802331915,-0.007093248525200303,-120.28714951530644,-83.54182277563562,-0.7851996894104271
5.165999999999997,0,0,0,-43.81921,172.65567,0.0,A,3,1,13,12.4,10.0,-0.09,0.995,-0.079,-3.0,6.5,-1.5,101427,27.2,28.7,0,4.16,45.2,1.1185124403604751,0.04080381324198469,-1.083112748540084,0.25711275332665134,-0.013237162245522639,-0.4716037056336638,-0.008089666104893317,-121.03985133149772,-83.60315747943282,-0.13600086588558627
5.216000000000008,0,0,0,-43.81921,172.65567,0.0,A,3,1,13,12.4,10.0,-0.012,0.978,-0.083,0.6,-14.6,1.6,101427,27.7,28.7,0,4.11,76.8,1.1185124403604751,0.04031709374695578,-1.106705007310292,0.27382304586047956,-0.0062316175556292736,-0.4720866451744436,-0.013040995399110843,-121.9742883870159,-83.65076264109626,1.1437607463459485
5.2660000000000196,0,0,0,-43.81921,172.65567,0.0,A,3,1,13,12.4,10.0,-0.107,0.994,0.001,1.1,6.5,1.2,101427,30.2,28.4,0,4.15,44.3,1.1185124403604751,0.040537119152067744,-1.1306560393248404,0.28991163810145554,0.015032633760105808,-0.4859546354072734,-0.019824133132470733,-121.93520223957964,-83.62656287307435,0.38240339905313325
5.3160000000000025,0,0,0,-43.81921,172.65567,0.0,A,3,1,13,12.4,10.0,-0.114,0.985,-0.085,1.6,5.7,2.0,101427,30.2,28.6,0,4.13,49.8,1.1185124403604751,0.04150270215591367,-1.155842804680605,0.3054243874792611,0.02359068639374443,-0.5215159788236611,-0.02341124104610852,-120.88403422957848,-83.56980132151494,-0.33582639977087686
5.366000000000014,0,0,0,-43.81921,172.65567,0.0,A,3,1,13,12.4,10.0,-0.036,0.992,-0.16,1.5,18.8,1.8,101427,39.7,28.6,0,4.14,45.2,1.1185124403604751,0.04229430218777893,-1.181952905052543,0.32050723926960906,0.008073314880858702,-0.5228880360536239,-0.024707504556993623,-119.47391834923357,-83.50982779348605,-1.4556354746824274
5.417000000000002,0,0,0,-43.81921,172.65567,0.0,A,3,1,13,12.4,10.0,-0.02,0.987,-0.198,-1.1,-6.5,0.8,101431,44.7,28.8,0,4.14,48.9,0.7743424030324028,0.04200209000659614,-1.207822110023018,0.32836680230793774,-0.01953261610371594,-0.4915905902397588,-0.023997586956712058,-117.49450548939075,-83.44450001987596,-2.470149834386265
5.480000000000018,0,0,0,-43.81921,172.65567,0.0,A,3,1,13,12.4,10.0,-0.011,9.833,-0.152,-16.5,69.0,1.0,101431,44.7,28.7,0,4.14,39.1,0.7743424030324028,0.04964865741963034,-1.2378754136204544,0.41957553948856413,0.26228078794600757,-0.4624825398373351,2.6896673364259502,-117.8067474143609,-83.47759656612737,-2.552297485702778
5.52000000000001,0,0,0,-43.81921,172.65567,0.0,A,3,1,13,12.4,10.0,0.058,10.635,-0.267,-7.1,123.5,-8.8,101431,57.2,28.7,0,4.15,41.0,0.7743424030324028,0.06749154145485524,-1.2556222677692317,0.6027717587024211,0.6298634138154148,-0.424860167601706,6.295071538217687,-117.53510377131816,-84.04795632298344,-0.03913904515556324
5.569000000000017,0,0,0,-43.81921,172.65567,0.0,A,3,1,13,12.4,10.0,0.184,11.534,-0.027,1.4,141.0,3.1,101431,104.2,28.7,0,4.11,67.5,0.7743424030324028,0.11079041886817692,-1.273712298308656,1.0242391804913982,1.1374377050954363,-0.3135084258440789,11.115840952507902,-116.73263592815006,-84.12078230513592,5.250234423734905
5.619,0,0,0,-43.81921,172.65567,0.0,A,3,1,13,12.4,10.0,-0.54,11.946,-0.575,10.1,152.2,-0.2,101431,104.2,28.7,0,4.14,41.9,0.7743424030324028,0.17845925328781148,-1.2894583801227417,1.6925844236580005,1.569315671690869,-0.3163348467195692,16.367554097125236,-108.08710489798,-84.07456767138868,3.658688970179117
5.669000000000011,0,0,0,-43.81921,172.65567,0.0,A,3,1,13,12.4,10.0,0.262,11.64,-0.746,5.7,95.0,-2.6,101425,151.0,28.7,0,4.14,41.9,1.2906015805207809,0.26394505187779616,-1.304595865254988,2.61628311409383,1.8501162719077415,-0.2891645585701459,21.662582527297708,-99.55529827297701,-83.54294367547286,2.7440307015669427
5.718999999999994,0,0,0,-43.81921,172.65567,0.0,A,3,1,13,12.4,10.0,-0.148,11.486,-0.338,3.4,67.0,-2.5,101425,192.0,28.7,0,4.11,70.3,1.2906015805207809,0.3663659352512144,-1.3168293225436296,3.7779066469562226,2.246719063030387,-0.2001737329756838,26.83281190267203,-95.7167524342406,-83.20559490938739,3.6741243239594406
5.7690000000000055,0,0,0,-43.81921,172.65567,0.0,A,3,1,13,12.4,10.0,0.066,11.264,-0.488,9.6,83.0,-3.1,101425,192.0,28.8,0,4.16,38.7,1.2906015805207809,0.4903454839996493,-1.3261004984030296,5.1672048560944015,2.7124628869058816,-0.17067330140023412,31.903690565350864,-93.42327858868666,-82.98943899424061,4.750874209809403
5.819000000000017,0,0,0,-43.81921,172.65567,0.0,A,3,1,13,12.4,10.0,-0.02,11.029,-0.409,18.2,80.1,-3.2,101425,229.7,28.8,0,4.14,44.7,1.2906015805207809,0.6377375274522451,-1.3330320617601659,6.774430836685729,3.18321885119661,-0.10658923288515841,36.861943969441654,-90.50273626143013,-82.46860992953134,6.002833515442367
5.869,0,0,0,-43.81921,172.65567,0.0,A,3,1,13,12.4,10.0,0.033,10.848,-0.572,22.4,66.1,-2.4,101425,262.7,29.1,0,4.14,36.4,1.2906015805207809,0.8095103068521224,-1.3369083518473086,8.589915293090957,3.687692324800826,-0.04846237060060798,41.71605772562711,-87.8694967379858,-81.52622473438447,7.40066923422435
5.919000000000011,0,0,0,-43.81921,172.65567,0.0,A,3,1,13,12.4,10.0,-0.058,10.852,-0.345,23.9,55.1,-1.0,101355,262.7,28.9,0,4.15,38.2,7.315453295806254,1.0091902525884335,-1.337576452263641,10.726049531544087,4.299505504649797,0.021738353947315915,46.51347200491708,-85.83590555755332,-80.38062988807518,8.700714558896657
5.968999999999994,0,0,0,-43.81921,172.65567,0.0,A,3,1,13,12.4,10.0,0.016,10.784,-0.503,27.6,43.1,-3.9,101355,295.7,28.9,0,4.11,65.2,7.315453295806254,1.242507241023956,-1.3342520315787472,13.05376574047786,5.033174032774282,0.11123847344848586,51.27951304199507,-84.06179032674942,-79.16157247382435,9.710108643925594
6.0190000000000055,0,0,0,-43.81921,172.65567,0.0,A,3,1,13,12.4,10.0,-0.09,10.812,-0.486,29.0,29.1,-5.7,101355,331.2,28.7,0,4.14,41.5,7.315453295806254,1.5146182210892785,-1.3259392735615874,15.567928376840245,5.851265169836149,0.22127184723783422,56.02370676434038,-83.68835124775163,-77.77745216373744,11.541012324752076
6.069000000000017,0,0,0,-43.81921,172.65567,0.0,A,3,1,13,12.4,10.0,-0.074,10.744,-0.155,30.4,19.1,-16.1,101355,331.2,29.0,0,4.11,66.6,7.315453295806254,1.8327262827173005,-1.310572064289079,18.263002495278627,6.873057295281841,0.3934165236623631,60.71603282988049,-84.22607767033104,-76.3325742137374,13.598356931714664
6.119,0,0,0,-43.81921,172.65567,0.0,A,3,1,13,12.4,10.0,0.109,10.631,-0.139,22.1,11.2,-18.5,101355,364.2,29.0,0,4.14,46.6,7.315453295806254,2.2060331720937065,-1.282550904044894,21.131888687300624,8.059218279779486,0.7274298861054262,65.3181376196092,-86.93176856371628,-74.84493421813141,17.39046953972464
6.169000000000011,0,0,0,-43.81921,172.65567,0.0,A,3,1,13,12.4,10.0,0.243,10.792,-0.099,6.5,0.0,-11.0,101218,394.7,28.9,0,4.14,45.2,19.11670544923861,2.640463618780977,-1.2329307137706342,24.404404930654056,9.31799958770739,1.2573777248645062,69.89900148708139,-89.83664217926221,-73.73135538567807,21.002504079404297
6.218999999999994,0,0,0,-43.81921,172.65567,0.0,A,3,1,13,12.4,10.0,0.3,10.626,-0.006,-15.3,-8.8,4.9,101218,394.7,28.7,0,4.09,78.2,19.11670544923861,3.1390414507514355,-1.1532558524587384,27.835219677226473,10.62511369111775,1.9296167276124114,74.4507428476913,-91.74167248856799,-73.36328917345983,23.001788291778734
6.2690000000000055,0,0,0,-43.81921,172.65567,0.0,A,3,1,13,12.4,10.0,0.204,10.539,-0.185,-32.6,-17.7,14.9,101218,427.0,28.7,0,4.14,43.3,19.11670544923861,3.701668217287092,-1.0402982995847379,31.419235167730438,11.8799569703034,2.5886853873465876,78.95275817528291,-91.47292538270153,-74.09911281709168,22.276421326427236
6.319000000000017,0,0,0,-43.81921,172.65567,0.0,A,3,1,13,12.4,10.0,0.011,10.482,-0.704,-29.3,-21.8,14.2,101218,457.0,28.8,0,4.14,49.4,19.11670544923861,4.321570258616247,-0.8994168763253495,35.15307537223583,12.91612468285716,3.0465715430276648,83.49176422775083,-89.72459912956286,-75.70183494535365,19.562017815607984
6.369,0,0,0,-43.81921,172.65567,0.0,A,3,1,13,12.4,10.0,-0.076,10.516,-0.874,-4.9,-30.6,8.4,101218,457.0,28.7,0,4.15,42.9,19.11670544923861,4.987351303392842,-0.7411681758907265,39.03621409496882,13.71511710821572,3.2833764743594136,88.09460806589668,-87.82698119370484,-77.11708957487645,16.501313093634277
6.432000000000016,0,0,0,-43.81921,172.655654,10.585,A,3,1,13,12.3,10.0,0.011,10.457,-0.515,25.1,-35.7,-4.6,101008,483.0,28.4,0,4.14,41.9,37.23134867966948,5.882534037207528,-0.5270518796310568,44.617968869798744,14.703382377957329,3.5139662640410085,93.88958639909933,-87.47461495561714,-77.36068546701937,14.17944496589718
6.477000000000004,0,0,0,-43.81921,172.655654,10.585,A,3,1,13,12.3,10.0,0.214,10.352,-0.179,26.5,-38.8,-13.9,101008,508.2,28.4,0,4.15,36.4,37.23134867966948,6.563505428316832,-0.3627792321390916,48.70033803227548,15.562012782464569,3.7870402911594754,97.95175447529975,-90.13561035484392,-76.20447815245443,15.273997962379456
6.524000000000001,0,0,0,-43.81921,172.655654,10.585,A,3,1,13,12.3,10.0,0.09,10.347,-0.08,15.7,-39.0,-13.0,101008,508.2,28.9,0,4.11,71.7,37.23134867966948,7.3199827986766,-0.17556069303025806,53.07869349137096,16.628513615825472,4.179706053897771,102.12359273042719,-94.36415573656436,-74.90021706937395,17.76924841280879
6.574000000000012,0,0,0,-43.81921,172.655654,10.585,A,3,1,13,12.3,10.0,0.268,10.289,0.066,-5.4,-39.4,-4.2,101008,531.2,28.7,0,4.12,69.4,37.23134867966948,8.182924775995787,0.046494112611883714,57.87313282166904,17.88916547693416,4.70248617178588,106.50441651573372,-98.37300130999986,-74.01053392525655,19.919009315019117
6.623999999999995,0,0,0,-43.81921,172.655654,10.585,A,3,1,13,12.3,10.0,0.289,10.095,-0.196,-11.9,-43.2,4.4,101008,555.2,28.7,0,4.14,39.1,37.23134867966948,9.108042322759239,0.2967833544108489,62.78479349440155,19.115536393616555,5.309083500176143,110.82196534444242,-101.27144185456767,-74.20246457649768,20.897253924429307
6.674000000000007,0,0,0,-43.81921,172.655654,10.585,A,3,1,13,12.3,10.0,0.088,9.982,-0.449,-5.1,-45.2,5.8,100771,555.2,29.2,0,4.14,38.7,57.71168306867147,10.090409354567985,0.5756613433666384,68.21866465472235,20.17914487872436,5.846036058052904,115.11000889368609,-103.1454749330914,-74.79162601943983,20.61335890635139
6.724000000000018,0,0,0,-43.81921,172.655654,10.585,A,3,1,13,12.3,10.0,0.082,9.932,-0.426,4.8,-47.9,-2.3,100771,580.5,28.7,0,4.11,70.8,57.71168306867147,11.12385792706796,0.8794297389561295,73.75365354044007,21.1587980212652,6.304699765523976,119.38503263437227,-104.61994466181048,-75.06950186628288,19.812708201375933
6.774000000000001,0,0,0,-43.81921,172.655654,10.585,A,3,1,13,12.3,10.0,-0.042,9.805,-0.194,8.8,-50.6,-7.0,100771,599.7,28.7,0,4.14,40.1,57.71168306867147,12.207681785476751,1.2053783198248191,79.38604102421613,22.19415631510123,6.73324346922805,123.60382014985052,-107.2086922963811,-74.76753650462874,20.026219966251887
6.824000000000012,0,0,0,-43.81921,172.655654,10.585,A,3,1,13,12.3,10.0,0.338,9.693,-0.029,0.2,-51.9,-5.6,100771,599.7,28.8,0,4.14,41.9,57.71168306867147,13.346005124690741,1.5549454419322195,85.11012508101219,23.338777253447976,7.249441415064788,127.72561723404974,-110.43958076525062,-74.19802428480867,20.766474417134237
6.873999999999995,0,0,0,-43.81921,172.655654,10.585,A,3,1,13,12.3,10.0,0.346,9.657,-0.051,-14.6,-54.6,8.9,100771,615.2,29.1,0,4.15,40.5,57.71168306867147,14.542725826248544,1.9333621302696358,90.92017346675065,24.530050808880492,7.887226118437021,131.78528994911173,-113.94259418783525,-74.04242539556611,21.72341463504641
6.924000000000007,0,0,0,-43.81921,172.655654,10.585,A,3,1,13,12.3,10.0,0.159,9.325,-0.454,-5.9,-53.7,12.4,100467,630.5,29.1,0,4.12,72.6,84.03899406759822,15.79537762309643,2.3425540254908803,97.33821109025388,25.576021065023532,8.480449690409035,135.79271868292034,-116.34261138467815,-74.85138920686938,21.393738712944685
6.974000000000018,0,0,0,-43.81921,172.655654,10.585,A,3,1,13,12.3,10.0,-0.109,7.932,-0.146,4.6,-54.9,-2.6,100467,630.5,28.4,0,4.14,42.4,84.03899406759822,17.096087228681682,2.77688943486532,103.81500567021415,26.452363158374805,8.892966684564596,139.42274745633895,-117.44983577567889,-75.35397646583667,19.77392778694853
7.024000000000001,0,0,0,-43.81921,172.655654,10.585,A,3,1,13,12.3,10.0,0.304,5.887,-0.17,1.8,-59.8,2.9,100467,644.5,28.6,0,4.11,69.4,84.03899406759822,18.437398669227274,3.2303379686574316,110.31969721629704,27.20009446346713,9.244974667126055,142.21854961050022,-120.2000006075849,-75.04876860166249,19.792105591254497
7.074000000000012,0,0,0,-43.81921,172.655654,10.585,A,3,1,13,12.3,10.0,-0.091,3.794,-0.061,0.4,-60.8,3.2,100467,652.5,28.6,0,4.12,67.5,84.03899406759822,19.81068196926818,3.6992812653778104,116.80708920076574,27.731237538156712,9.512757201684822,144.02659518301328,-122.53885185609947,-75.00631909566862,19.13092454028502
7.123999999999995,0,0,0,-43.81921,172.655654,10.585,A,3,1,13,12.3,10.0,0.264,1.924,0.136,-16.7,-59.9,-4.1,100467,652.5,28.4,0,4.14,46.1,84.03899406759822,21.206544768916658,4.178708804932997,123.22993042674175,28.103274447801397,9.664344380529197,144.87965496563004,-125.02070960551613,-75.03760726258693,18.566004238138795
7.174000000000007,0,0,0,-43.81921,172.655654,10.585,A,3,1,13,12.3,10.0,-0.023,0.044,-0.449,-5.8,-62.9,3.0,100101,656.2,28.7,0,4.14,48.4,115.82140896297976,22.6132830308106,4.665021212734503,130.18038435913934,28.166256027943465,9.788151931526617,144.86011489850057,-130.54998841637342,-75.53117316992059,21.198959409493654
7.224000000000018,0,0,0,-43.81921,172.655654,10.585,A,3,1,13,12.3,10.0,0.07,-1.052,-0.226,12.3,-67.2,14.5,100101,652.7,28.7,0,4.1,80.5,115.82140896297976,24.016511251671144,5.155610320749086,136.9741565012873,27.96287280646556,9.83541238905224,144.15831979821542,-133.98038110034278,-75.806321761238,21.50632623316569
7.274000000000001,0,0,0,-43.81921,172.655654,10.585,A,3,1,13,12.3,10.0,-0.045,-1.241,-0.035,11.0,-80.2,10.1,100101,652.7,28.6,0,4.14,49.4,115.82140896297976,25.410006973978227,5.647020020458109,143.58973065611968,27.776956085836805,9.820975599315393,143.13266410386393,-133.53775894531768,-75.82347919713425,17.59692997774213
7.324000000000012,0,0,0,-43.81921,172.655654,10.585,A,3,1,13,12.3,10.0,-0.235,-1.277,0.454,-2.5,-69.8,0.4,100101,642.7,28.7,0,4.13,49.8,115.82140896297976,26.79656660847894,6.134223054876434,150.02102557428256,27.685429294179105,9.667145777413143,142.03718699916092,-134.55770414695323,-75.73920569346784,14.525175127560196
7.388000000000005,0,0,0,-43.81921,172.655578,12.944999,A,3,1,13,12.0,10.0,-0.011,-1.022,-0.044,-12.7,-74.5,-6.6,99677,630.5,28.7,0,4.14,41.5,152.75824210530575,28.565245398448248,6.74730609933888,158.9424122198191,27.58578289236788,9.491699362040436,140.7001317163063,-139.344678779115,-75.8165150763359,14.871454584861821
7.431000000000012,0,0,0,-43.81921,172.655578,12.944999,A,3,1,13,12.0,10.0,0.042,-1.521,-0.024,-7.9,-69.8,0.4,99677,618.5,28.8,0,4.11,74.0,152.75824210530575,29.74857091104117,7.154946975996705,164.72800074368376,27.45261304217847,9.468341412739289,139.75890606983856,-144.8890364567531,-75.89487345504628,17.296458010866704
7.479000000000013,0,0,0,-43.81921,172.655578,12.944999,A,3,1,13,12.0,10.0,0.064,-1.308,-0.083,-5.4,-68.3,4.0,99677,618.5,28.8,0,4.15,41.9,152.75824210530575,31.06252454780942,7.60908905537047,171.03654241270254,27.29545515649657,9.454245227833551,138.63976917616867,-149.39270815523096,-76.08128369171412,18.497368062356102
7.528999999999996,0,0,0,-43.81921,172.655578,12.944999,A,3,1,13,12.0,10.0,0.146,-1.337,0.173,-5.2,-62.1,13.2,99677,606.5,28.8,0,4.14,40.5,152.75824210530575,32.424858443128265,8.081075906052252,177.4365553570738,27.197900656275696,9.42522879944416,137.5063104369535,-153.28563292576487,-76.35073582654024,19.002240172648847
7.579000000000008,0,0,0,-43.81921,172.655578,12.944999,A,3,1,13,12.0,10.0,-0.551,-1.421,-0.14,-9.8,-58.7,9.4,99677,593.0,28.8,0,4.12,72.6,152.75824210530575,33.77943783158812,8.549340890321067,183.65311148828206,26.985274882106147,9.305370571304177,136.37623634843985,-156.08283330994826,-77.02421425030462,18.698668833291073
7.629000000000019,0,0,0,-43.81921,172.655578,12.944999,A,3,1,13,12.0,10.0,-0.218,-1.211,-0.107,0.9,-62.2,-8.2,99262,593.0,28.7,0,4.14,42.4,189.0344477976825,35.12095234408445,9.011475264804607,190.41679258892765,26.675305617735027,9.180004408033222,135.29945240486984,-160.13721094175355,-77.6101605972158,19.858720801184926
7.679000000000002,0,0,0,-43.81921,172.655578,12.944999,A,3,1,13,12.0,10.0,-0.073,-1.187,-0.021,1.7,-68.2,-4.8,99262,580.7,28.7,0,4.17,37.7,189.0344477976825,36.44986278917836,9.468879872066537,196.99314850290867,26.481112186039628,9.116179882450222,134.25168268934192,-163.49587704763692,-77.17549334884622,20.126236360884654
7.729000000000013,0,0,0,-43.81921,172.655578,12.944999,A,3,1,13,12.0,10.0,0.063,-1.018,-0.001,6.6,-65.5,-0.7,99262,565.5,28.7,0,4.12,72.6,189.0344477976825,37.77095575390214,9.923703444657654,203.38739149460977,26.36260640289952,9.076763021190342,133.2347257108271,-166.68107887433297,-76.89217304498155,19.908291245333352
7.778999999999996,0,0,0,-43.81921,172.655578,12.944999,A,3,1,13,12.0,10.0,-0.122,-1.129,0.297,7.7,-57.8,3.0,99262,565.5,28.7,0,4.14,42.4,189.0344477976825,39.08682989637177,10.37482362629005,209.60425109857616,26.272359295903513,8.968044244111633,132.23133461191327,-168.47197878975302,-76.75870025253083,18.396820179088582
7.829000000000008,0,0,0,-43.81921,172.655578,12.944999,A,3,1,13,12.0,10.0,-0.156,-1.14,0.145,-9.1,-58.0,8.9,99262,550.7,28.7,0,4.14,39.6,189.0344477976825,40.397253340415396,10.819103619531639,215.64715325528365,26.144578465829685,8.803155485547858,131.20940917273626,-169.4890020982838,-76.8047799050008,16.485619894101347
7.879000000000019,0,0,0,-43.81921,172.655578,12.944999,A,3,1,13,12.0,10.0,-0.262,-1.116,0.232,-20.9,-62.1,-5.2,98891,536.5,28.9,0,4.15,40.1,221.5686181366345,41.700241229020165,11.255176582793354,222.17009774899554,25.974937078349058,8.639763044916776,130.19937434087245,-173.9165238694903,-77.28468875269225,18.06573490352615
7.929000000000002,0,0,0,-43.81921,172.655578,12.944999,A,3,1,13,12.0,10.0,0.091,-1.382,-0.059,-23.0,-75.2,-1.2,98891,536.5,28.4,0,4.11,74.0,221.5686181366345,42.99532899790526,11.684553882736461,228.5113700085395,25.82857367707245,8.535328952813382,129.11906858946801,178.5121805442586,-77.04400825837189,22.659012546168466
7.979000000000013,0,0,0,-43.81921,172.655578,12.944999,A,3,1,13,12.0,10.0,-0.011,-1.187,-0.34,-4.9,-66.6,4.2,98891,520.7,28.4,0,4.16,42.9,221.5686181366345,44.28321279963281,12.11231748938204,234.67210025771408,25.68677839201755,8.575215313005843,128.006861476297,170.01409157411092,-76.85160727337801,27.535224502011623
8.028999999999996,0,0,0,-43.81921,172.655578,12.944999,A,3,1,13,12.0,10.0,-0.104,-1.117,-0.173,6.0,-67.7,4.9,98891,506.7,28.8,0,4.15,43.3,221.5686181366345,45.56315942444843,12.542410671799965,240.65687316828544,25.51108660062478,8.628511983717049,126.96630395207391,165.6424029881063,-76.99187753785078,28.617389823916465
8.079000000000008,0,0,0,-43.81921,172.655578,12.944999,A,3,1,13,12.0,10.0,-0.408,-1.096,0.055,13.0,-65.0,-5.4,98891,506.7,28.9,0,4.13,64.3,221.5686181366345,46.83283908364455,12.972516121597186,246.47208712064827,25.27609976720841,8.575706008167913,125.9716165783114,163.4236826039767,-77.29689848964198,27.433852233612733
8.129000000000019,0,0,0,-43.81921,172.655578,12.944999,A,3,1,13,12.0,10.0,-0.139,-1.083,0.057,-0.9,-57.0,-13.0,98522,491.2,28.9,0,4.13,52.6,254.02558484231767,48.09087375196811,13.398796128080585,252.77171032583817,25.04528696572269,8.475494251164141,124.9897405953678,163.4567134633205,-77.21300721852285,24.080619689775332
8.179000000000002,0,0,0,-43.81921,172.655578,12.944999,A,3,1,13,12.0,10.0,0.076,-1.074,0.01,-6.5,-55.4,-1.7,98522,478.7,28.7,0,4.13,48.0,254.02558484231767,49.34007065787148,13.820889471922422,258.8967432690002,24.92258927042909,8.408239502515105,123.98803298971366,161.4478952230989,-76.57009584559248,23.22966203297894
8.229000000000013,0,0,0,-43.81921,172.655578,12.944999,A,3,1,13,12.0,10.0,0.326,-1.087,0.121,-3.5,-53.9,6.3,98522,478.7,28.7,0,4.14,48.4,254.02558484231767,50.585802011691015,14.239332443268122,264.849629692135,24.906664882340966,8.329479351309063,122.9633789150664,157.71567625511318,-76.36943871129357,24.232109324029484
8.278999999999996,0,0,0,-43.81921,172.655578,12.944999,A,3,1,13,12.0,10.0,0.025,-0.993,-0.019,-6.0,-54.3,13.9,98522,465.7,28.7,0,4.14,46.6,254.02558484231767,51.83055625955286,14.653976888803149,270.63377648279294,24.883505032149777,8.25629847009768,121.96020017294609,154.00325294750215,-76.58031981613698,25.29131300029304
8.329000000000008,0,0,0,-43.81921,172.655578,12.944999,A,3,1,13,12.0,10.0,-0.021,-0.957,-0.062,-4.8,-60.7,11.3,98522,453.2,28.3,0,4.13,49.4,254.02558484231767,53.07233016377002,15.066072208019383,276.2541710336044,24.787451136525547,8.227514298547954,121.00136650540597,148.9341965157121,-77.04583258735849,27.72180159740012
8.39100000000002,0,0,0,-43.81921,172.655487,12.472999,A,3,1,12,11.8,10.0,-0.329,-0.973,0.242,-3.0,-54.1,4.9,98140,453.2,28.8,0,4.15,41.9,287.72988434834025,54.60219864550207,15.572981527004993,283.8006414330504,24.56314504837002,8.124399217113737,119.84643247911922,142.58108233343526,-77.46035260804058,30.392647955833137
8.436000000000007,0,0,0,-43.81921,172.655487,12.472999,A,3,1,12,11.8,10.0,-0.239,-0.971,-0.081,-3.7,-55.3,-3.1,98140,442.0,28.5,0,4.11,74.5,287.72988434834025,55.70292831604124,15.937136580073652,289.14604443045545,24.35817364227316,8.060269808164502,119.01153301297644,139.22271410036797,-77.55147001025011,31.35036698495131
8.483000000000004,0,0,0,-43.81921,172.655487,12.472999,A,3,1,12,11.8,10.0,-0.072,-1.096,-0.224,-3.2,-56.5,-4.6,98140,430.0,28.5,0,4.15,41.9,287.72988434834025,56.84434951136857,16.31661436136507,294.57808721772335,24.212941052510057,8.087720885088315,118.08642568917337,136.66402948559409,-77.33415050021473,31.32091559372774
8.533000000000015,0,0,0,-43.81921,172.655487,12.472999,A,3,1,12,11.8,10.0,0.023,-0.865,-0.01,1.2,-63.5,-1.6,98140,430.0,28.5,0,4.15,42.4,287.72988434834025,58.05270851741685,16.721070092567064,300.2036805359549,24.121419189410172,8.09050836298778,117.11999780543474,134.23566508154212,-77.06757100360508,30.926901840378882
8.582999999999998,0,0,0,-43.81921,172.655487,12.472999,A,3,1,12,11.8,10.0,-0.036,-0.925,-0.021,2.5,-57.3,1.0,98140,418.7,28.2,0,4.12,69.8,287.72988434834025,59.2566440326681,17.124555037231115,305.67055946901536,24.036001420655985,8.048889423579785,116.20060859516516,131.6781290961226,-77.06824344197486,30.306107266432296
8.63300000000001,0,0,0,-43.81921,172.655487,12.472999,A,3,1,12,11.8,10.0,-0.043,-0.901,0.092,-1.2,-56.9,0.6,97796,406.2,28.2,0,4.14,45.7,318.17242654023653,60.455683825044936,17.525511930992497,311.59185004674856,23.925590274406698,7.989386326871903,115.27911533575143,129.1845812478407,-77.20881090370825,29.937830395966795
8.682999999999993,0,0,0,-43.81921,172.655487,12.472999,A,3,1,12,11.8,10.0,-0.019,-0.902,0.103,-3.8,-56.0,0.7,97796,406.2,28.9,0,4.14,41.5,318.17242654023653,61.64905850928135,17.922805247996468,317.349808082995,23.809397095066316,7.902346353292397,114.36768084296737,126.2546312012007,-77.19454141354466,30.037677541364058
8.733000000000004,0,0,0,-43.81921,172.655487,12.472999,A,3,1,12,11.8,10.0,-0.051,-0.917,0.028,-3.7,-55.8,2.9,97796,396.7,28.7,0,4.15,42.9,318.17242654023653,62.836684347662576,18.31613425552978,322.94779375844564,23.69563644017168,7.830813948036505,113.4500051286445,123.03214707152283,-77.07500540309348,30.483774745570926
8.783000000000015,0,0,0,-43.81921,172.655487,12.472999,A,3,1,12,11.8,10.0,-0.157,-0.901,0.029,-3.0,-55.0,2.4,97796,386.5,28.7,0,4.14,41.9,318.17242654023653,64.01805756677841,18.70670240534496,328.3888761473815,23.559292324451082,7.791912044567125,112.53324929171447,119.4569545966341,-77.01111504624573,31.302218811022687
8.832999999999998,0,0,0,-43.81921,172.655487,12.472999,A,3,1,12,11.8,10.0,-0.137,-0.882,0.062,-3.6,-53.8,1.6,97796,386.5,28.7,0,4.14,43.3,318.17242654023653,65.1921128016996,19.09545986388716,333.6765115878742,23.402917072412517,7.758386297126263,111.62856428532245,116.10991766947278,-76.95557310126517,31.927743382396923
8.88300000000001,0,0,0,-43.81921,172.655487,12.472999,A,3,1,12,11.8,10.0,-0.042,-0.729,-0.038,-4.3,-55.9,-2.0,97505,376.2,29.2,0,4.14,41.9,343.9924664927336,66.35938238897397,19.48265371825396,339.33131131378445,23.287866418551715,7.7293678775422014,110.75840011516182,112.94420954720832,-76.84822346257032,32.42890447165536
8.932999999999993,0,0,0,-43.81921,172.655487,12.472999,A,3,1,12,11.8,10.0,0.003,-0.747,-0.042,-2.4,-56.2,5.5,97505,367.5,29.2,0,4.11,69.8,343.9924664927336,67.52210303376218,19.868535490800035,344.8309593649388,23.220959372992688,7.705903024306068,109.91200590839809,110.35825765286107,-76.63637945176652,32.226885812760244
8.983000000000004,0,0,0,-43.81921,172.655487,12.472999,A,3,1,12,11.8,10.0,-0.099,-1.116,-0.006,0.2,-57.0,8.5,97505,367.5,28.6,0,4.14,38.2,343.9924664927336,68.68066144598308,20.253004524557678,350.1769396281165,23.12137711583253,7.672858325996183,108.97575411693131,106.43447825098448,-76.63597840354359,33.38441825730234
9.033000000000015,0,0,0,-43.81921,172.655487,12.472999,A,3,1,12,11.8,10.0,-0.108,-0.824,0.116,-2.0,-56.0,5.8,97505,358.2,29.2,0,4.14,44.3,343.9924664927336,69.8330739488537,20.63547644320479,355.3699139597407,22.975122998981867,7.626018419884838,108.03093136595345,101.9871872808142,-76.77889513940363,35.03841951317294
9.082999999999998,0,0,0,-43.81921,172.655487,12.472999,A,3,1,12,11.8,10.0,-0.07,-0.803,0.004,-4.9,-53.6,3.8,97505,350.5,29.2,0,4.11,70.3,343.9924664927336,70.97870641594544,21.015679723995373,360.4145472099308,22.850175684703654,7.582112811743587,107.16017881902695,98.02594290578554,-76.76176141755163,36.24407007353536
